{
"type": "FeatureCollection",
"crs": { "type": "name", "properties": { "name": "urn:ogc:def:crs:OGC:1.3:CRS84" } },
"features": [
{ "type": "Feature", "properties": { "code": "301_CA_SNTL", "name": "Adin Mtn", "elevation_m": 1886.7120361328125, "latitude": 41.235828399658203, "longitude": -120.79192352294922, "county": "Modoc", "state": "California", "beginDate": "1983-10-01T00:00:00", "endDate": "2100-01-01T00:00:00", "HUC": "180200021403", "isActive": true, "mgrs": "10TFL", "mountainRange": "Great Basin Ranges" }, "geometry": { "type": "Point", "coordinates": [ -120.791923522949219, 41.235828399658203 ] } },
{ "type": "Feature", "properties": { "code": "907_UT_SNTL", "name": "Agua Canyon", "elevation_m": 2712.719970703125, "latitude": 37.522171020507812, "longitude": -112.27117919921875, "county": "Kane", "state": "Utah", "beginDate": "1994-10-01T00:00:00", "endDate": "2100-01-01T00:00:00", "HUC": "160300020301", "isActive": true, "mgrs": "12SUG", "mountainRange": "Colorado Plateau" }, "geometry": { "type": "Point", "coordinates": [ -112.27117919921875, 37.522171020507812 ] } },
{ "type": "Feature", "properties": { "code": "916_MT_SNTL", "name": "Albro Lake", "elevation_m": 2529.840087890625, "latitude": 45.59722900390625, "longitude": -111.95902252197266, "county": "Madison", "state": "Montana", "beginDate": "1996-09-01T00:00:00", "endDate": "2100-01-01T00:00:00", "HUC": "100200050701", "isActive": true, "mgrs": "12TVR", "mountainRange": "Central Montana Rocky Mountains" }, "geometry": { "type": "Point", "coordinates": [ -111.959022521972656, 45.59722900390625 ] } },
{ "type": "Feature", "properties": { "code": "1267_AK_SNTL", "name": "Alexander Lake", "elevation_m": 48.768001556396484, "latitude": 61.749668121337891, "longitude": -150.88966369628906, "county": "Matanuska-Susitna", "state": "Alaska", "beginDate": "2014-08-28T00:00:00", "endDate": "2100-01-01T00:00:00", "HUC": "190205051106", "isActive": true, "mgrs": "05VPJ", "mountainRange": null }, "geometry": { "type": "Point", "coordinates": [ -150.889663696289062, 61.749668121337891 ] } },
{ "type": "Feature", "properties": { "code": "908_WA_SNTL", "name": "Alpine Meadows", "elevation_m": 1066.800048828125, "latitude": 47.779571533203125, "longitude": -121.69847106933594, "county": "King", "state": "Washington", "beginDate": "1994-09-01T00:00:00", "endDate": "2100-01-01T00:00:00", "HUC": "171100100501", "isActive": true, "mgrs": "10TET", "mountainRange": "Cascade Range" }, "geometry": { "type": "Point", "coordinates": [ -121.698471069335938, 47.779571533203125 ] } },
{ "type": "Feature", "properties": { "code": "1189_AK_SNTL", "name": "American Creek", "elevation_m": 320.04000854492188, "latitude": 64.789688110351562, "longitude": -141.2337646484375, "county": "Southeast Fairbanks", "state": "Alaska", "beginDate": "2011-08-04T00:00:00", "endDate": "2100-01-01T00:00:00", "HUC": "190705050504", "isActive": true, "mgrs": "07WDM", "mountainRange": "Alaska Intermountain Ranges" }, "geometry": { "type": "Point", "coordinates": [ -141.2337646484375, 64.789688110351562 ] } },
{ "type": "Feature", "properties": { "code": "1062_AK_SNTL", "name": "Anchor River Divide", "elevation_m": 503.83441162109375, "latitude": 59.859718322753906, "longitude": -151.31500244140625, "county": "Kenai Peninsula", "state": "Alaska", "beginDate": "1980-10-01T00:00:00", "endDate": "2100-01-01T00:00:00", "HUC": "190203010701", "isActive": true, "mgrs": "05VNG", "mountainRange": null }, "geometry": { "type": "Point", "coordinates": [ -151.31500244140625, 59.859718322753906 ] } },
{ "type": "Feature", "properties": { "code": "1070_AK_SNTL", "name": "Anchorage Hillside", "elevation_m": 633.9840087890625, "latitude": 61.114830017089844, "longitude": -149.66682434082031, "county": "Anchorage", "state": "Alaska", "beginDate": "2004-10-01T00:00:00", "endDate": "2100-01-01T00:00:00", "HUC": "190204010601", "isActive": true, "mgrs": "06VUN", "mountainRange": "South-Central Alaska" }, "geometry": { "type": "Point", "coordinates": [ -149.666824340820312, 61.114830017089844 ] } },
{ "type": "Feature", "properties": { "code": "302_OR_SNTL", "name": "Aneroid Lake #2", "elevation_m": 2255.52001953125, "latitude": 45.213279724121094, "longitude": -117.19258117675781, "county": "Wallowa", "state": "Oregon", "beginDate": "1980-10-01T00:00:00", "endDate": "2100-01-01T00:00:00", "HUC": "170601050101", "isActive": true, "mgrs": "11TML", "mountainRange": "Columbia Plateau" }, "geometry": { "type": "Point", "coordinates": [ -117.192581176757812, 45.213279724121094 ] } },
{ "type": "Feature", "properties": { "code": "1000_OR_SNTL", "name": "Annie Springs", "elevation_m": 1831.8480224609375, "latitude": 42.870071411132812, "longitude": -122.16517639160156, "county": "Klamath", "state": "Oregon", "beginDate": "2000-09-01T00:00:00", "endDate": "2100-01-01T00:00:00", "HUC": "180102030101", "isActive": true, "mgrs": "10TEN", "mountainRange": "Cascade Range" }, "geometry": { "type": "Point", "coordinates": [ -122.165176391601562, 42.870071411132812 ] } },
{ "type": "Feature", "properties": { "code": "303_CO_SNTL", "name": "Apishapa", "elevation_m": 3048.0, "latitude": 37.330619812011719, "longitude": -105.06748962402344, "county": "Huerfano", "state": "Colorado", "beginDate": "1979-10-01T00:00:00", "endDate": "2100-01-01T00:00:00", "HUC": "110200060406", "isActive": true, "mgrs": "13SDB", "mountainRange": "Southern Rocky Mountains" }, "geometry": { "type": "Point", "coordinates": [ -105.067489624023438, 37.330619812011719 ] } },
{ "type": "Feature", "properties": { "code": "1030_CO_SNTL", "name": "Arapaho Ridge", "elevation_m": 3340.60791015625, "latitude": 40.350978851318359, "longitude": -106.38141632080078, "county": "Grand", "state": "Colorado", "beginDate": "2002-08-01T00:00:00", "endDate": "2100-01-01T00:00:00", "HUC": "140100010604", "isActive": true, "mgrs": "13TCE", "mountainRange": "Southern Rocky Mountains" }, "geometry": { "type": "Point", "coordinates": [ -106.381416320800781, 40.350978851318359 ] } },
{ "type": "Feature", "properties": { "code": "304_OR_SNTL", "name": "Arbuckle Mtn", "elevation_m": 1758.696044921875, "latitude": 45.190849304199219, "longitude": -119.25392150878906, "county": "Morrow", "state": "Oregon", "beginDate": "1978-10-01T00:00:00", "endDate": "2100-01-01T00:00:00", "HUC": "170702020604", "isActive": true, "mgrs": "11TLL", "mountainRange": "Columbia Plateau" }, "geometry": { "type": "Point", "coordinates": [ -119.253921508789062, 45.190849304199219 ] } },
{ "type": "Feature", "properties": { "code": "305_CO_SNTL", "name": "Arrow", "elevation_m": 2950.464111328125, "latitude": 39.915500640869141, "longitude": -105.76083374023438, "county": "Grand", "state": "Colorado", "beginDate": "1978-10-01T00:00:00", "endDate": "2013-10-01T00:00:00", "HUC": "140100010202", "isActive": false, "mgrs": "13SDE", "mountainRange": "Southern Rocky Mountains" }, "geometry": { "type": "Point", "coordinates": [ -105.760833740234375, 39.915500640869141 ] } },
{ "type": "Feature", "properties": { "code": "957_AK_SNTL", "name": "Atigun Pass", "elevation_m": 1463.0400390625, "latitude": 68.129829406738281, "longitude": -149.47816467285156, "county": "North Slope", "state": "Alaska", "beginDate": "1981-10-01T00:00:00", "endDate": "2100-01-01T00:00:00", "HUC": "190802010102", "isActive": true, "mgrs": "06WUA", "mountainRange": "Brooks Range" }, "geometry": { "type": "Point", "coordinates": [ -149.478164672851562, 68.129829406738281 ] } },
{ "type": "Feature", "properties": { "code": "306_ID_SNTL", "name": "Atlanta Summit", "elevation_m": 2310.384033203125, "latitude": 43.756900787353516, "longitude": -115.23906707763672, "county": "Elmore", "state": "Idaho", "beginDate": "1978-10-01T00:00:00", "endDate": "2100-01-01T00:00:00", "HUC": "170501110204", "isActive": true, "mgrs": "11TPJ", "mountainRange": "Idaho-Bitterroot Rocky Mountains" }, "geometry": { "type": "Point", "coordinates": [ -115.239067077636719, 43.756900787353516 ] } },
{ "type": "Feature", "properties": { "code": "8082_UT_SNTL", "name": "Atwood Lake", "elevation_m": 3304.031982421875, "latitude": 40.733329772949219, "longitude": -110.28333282470703, "county": "Duchesne", "state": "Utah", "beginDate": "1977-09-01T00:00:00", "endDate": "1989-10-01T00:00:00", "HUC": "140600031102", "isActive": false, "mgrs": "12TWL", "mountainRange": "Western Rocky Mountains" }, "geometry": { "type": "Point", "coordinates": [ -110.283332824707031, 40.733329772949219 ] } },
{ "type": "Feature", "properties": { "code": "307_MT_SNTL", "name": "Badger Pass", "elevation_m": 2103.1201171875, "latitude": 48.130878448486328, "longitude": -113.02317047119141, "county": "Pondera", "state": "Montana", "beginDate": "1968-10-01T00:00:00", "endDate": "2100-01-01T00:00:00", "HUC": "100302010201", "isActive": true, "mgrs": "12UUU", "mountainRange": "Central Montana Rocky Mountains" }, "geometry": { "type": "Point", "coordinates": [ -113.023170471191406, 48.130878448486328 ] } },
{ "type": "Feature", "properties": { "code": "308_AZ_SNTL", "name": "Baker Butte", "elevation_m": 2225.0400390625, "latitude": 34.456600189208984, "longitude": -111.40643310546875, "county": "Gila", "state": "Arizona", "beginDate": "1965-10-01T00:00:00", "endDate": "2100-01-01T00:00:00", "HUC": "150602030206", "isActive": true, "mgrs": "12SVD", "mountainRange": "Colorado Plateau" }, "geometry": { "type": "Point", "coordinates": [ -111.40643310546875, 34.456600189208984 ] } },
{ "type": "Feature", "properties": { "code": "1140_AZ_SNTL", "name": "Baker Butte Smt", "elevation_m": 2346.9599609375, "latitude": 34.455471038818359, "longitude": -111.38272094726562, "county": "Coconino", "state": "Arizona", "beginDate": "2009-05-18T00:00:00", "endDate": "2100-01-01T00:00:00", "HUC": "150602030103", "isActive": true, "mgrs": "12SVD", "mountainRange": "Colorado Plateau" }, "geometry": { "type": "Point", "coordinates": [ -111.382720947265625, 34.455471038818359 ] } },
{ "type": "Feature", "properties": { "code": "309_WY_SNTL", "name": "Bald Mtn.", "elevation_m": 2859.02392578125, "latitude": 44.800701141357422, "longitude": -107.84442138671875, "county": "Big Horn", "state": "Wyoming", "beginDate": "1975-10-01T00:00:00", "endDate": "2100-01-01T00:00:00", "HUC": "100800100501", "isActive": true, "mgrs": "13TBK", "mountainRange": "Greater Yellowstone Rockies" }, "geometry": { "type": "Point", "coordinates": [ -107.84442138671875, 44.800701141357422 ] } },
{ "type": "Feature", "properties": { "code": "310_AZ_SNTL", "name": "Baldy", "elevation_m": 2781.300048828125, "latitude": 33.978828430175781, "longitude": -109.50344085693359, "county": "Apache", "state": "Arizona", "beginDate": "1949-11-01T00:00:00", "endDate": "2100-01-01T00:00:00", "HUC": "150200010203", "isActive": true, "mgrs": "12SXC", "mountainRange": null }, "geometry": { "type": "Point", "coordinates": [ -109.503440856933594, 33.978828430175781 ] } },
{ "type": "Feature", "properties": { "code": "311_MT_SNTL", "name": "Banfield Mountain", "elevation_m": 1706.8800048828125, "latitude": 48.571201324462891, "longitude": -115.44573211669922, "county": "Lincoln", "state": "Montana", "beginDate": "1968-10-01T00:00:00", "endDate": "2100-01-01T00:00:00", "HUC": "170101011202", "isActive": true, "mgrs": "11UPP", "mountainRange": "Columbia Mountains" }, "geometry": { "type": "Point", "coordinates": [ -115.445732116699219, 48.571201324462891 ] } },
{ "type": "Feature", "properties": { "code": "312_ID_SNTL", "name": "Banner Summit", "elevation_m": 2145.7919921875, "latitude": 44.303421020507812, "longitude": -115.23446655273438, "county": "Boise", "state": "Idaho", "beginDate": "1979-10-01T00:00:00", "endDate": "2100-01-01T00:00:00", "HUC": "170501200202", "isActive": true, "mgrs": "11TPK", "mountainRange": "Idaho-Bitterroot Rocky Mountains" }, "geometry": { "type": "Point", "coordinates": [ -115.234466552734375, 44.303421020507812 ] } },
{ "type": "Feature", "properties": { "code": "1212_AZ_SNTL", "name": "Bar M", "elevation_m": 1948.58642578125, "latitude": 34.861358642578125, "longitude": -111.60502624511719, "county": "Coconino", "state": "Arizona", "beginDate": "2012-09-06T00:00:00", "endDate": "2100-01-01T00:00:00", "HUC": "150602020601", "isActive": true, "mgrs": "12SVD", "mountainRange": null }, "geometry": { "type": "Point", "coordinates": [ -111.605026245117188, 34.861358642578125 ] } },
{ "type": "Feature", "properties": { "code": "313_MT_SNTL", "name": "Barker Lakes", "elevation_m": 2514.60009765625, "latitude": 46.097129821777344, "longitude": -113.13037872314453, "county": "Deer Lodge", "state": "Montana", "beginDate": "1977-08-01T00:00:00", "endDate": "2100-01-01T00:00:00", "HUC": "170102010304", "isActive": true, "mgrs": "12TUS", "mountainRange": "Central Montana Rocky Mountains" }, "geometry": { "type": "Point", "coordinates": [ -113.130378723144531, 46.097129821777344 ] } },
{ "type": "Feature", "properties": { "code": "314_WY_SNTL", "name": "Base Camp", "elevation_m": 2151.887939453125, "latitude": 43.940189361572266, "longitude": -110.44544219970703, "county": "Teton", "state": "Wyoming", "beginDate": "1979-10-01T00:00:00", "endDate": "2100-01-01T00:00:00", "HUC": "170401010304", "isActive": true, "mgrs": "12TWP", "mountainRange": "Greater Yellowstone Rockies" }, "geometry": { "type": "Point", "coordinates": [ -110.445442199707031, 43.940189361572266 ] } },
{ "type": "Feature", "properties": { "code": "315_MT_SNTL", "name": "Basin Creek", "elevation_m": 2188.464111328125, "latitude": 45.797370910644531, "longitude": -112.52046966552734, "county": "Silver Bow", "state": "Montana", "beginDate": "1976-10-01T00:00:00", "endDate": "2100-01-01T00:00:00", "HUC": "170102010201", "isActive": true, "mgrs": "12TUR", "mountainRange": "Central Montana Rocky Mountains" }, "geometry": { "type": "Point", "coordinates": [ -112.520469665527344, 45.797370910644531 ] } },
{ "type": "Feature", "properties": { "code": "316_NM_SNTL", "name": "Bateman", "elevation_m": 2834.639892578125, "latitude": 36.512161254882812, "longitude": -106.3212890625, "county": "Rio Arriba", "state": "New Mexico", "beginDate": "1978-10-01T00:00:00", "endDate": "2100-01-01T00:00:00", "HUC": "130201020901", "isActive": true, "mgrs": "13SCA", "mountainRange": "Southern Rocky Mountains" }, "geometry": { "type": "Point", "coordinates": [ -106.3212890625, 36.512161254882812 ] } },
{ "type": "Feature", "properties": { "code": "317_WY_SNTL", "name": "Battle Mountain", "elevation_m": 2267.7119140625, "latitude": 41.054130554199219, "longitude": -107.26609039306641, "county": "Carbon", "state": "Wyoming", "beginDate": "1985-10-01T00:00:00", "endDate": "2100-01-01T00:00:00", "HUC": "140500030109", "isActive": true, "mgrs": "13TCF", "mountainRange": "Southern Rocky Mountains" }, "geometry": { "type": "Point", "coordinates": [ -107.266090393066406, 41.054130554199219 ] } },
{ "type": "Feature", "properties": { "code": "318_MT_SNTL", "name": "Beagle Springs", "elevation_m": 2697.47998046875, "latitude": 44.471469879150391, "longitude": -112.98191070556641, "county": "Beaverhead", "state": "Montana", "beginDate": "1976-10-01T00:00:00", "endDate": "2100-01-01T00:00:00", "HUC": "100200010501", "isActive": true, "mgrs": "12TUQ", "mountainRange": "Idaho-Bitterroot Rocky Mountains" }, "geometry": { "type": "Point", "coordinates": [ -112.981910705566406, 44.471469879150391 ] } },
{ "type": "Feature", "properties": { "code": "319_ID_SNTL", "name": "Bear Basin", "elevation_m": 1630.6800537109375, "latitude": 44.952220916748047, "longitude": -116.14292907714844, "county": "Adams", "state": "Idaho", "beginDate": "1979-10-01T00:00:00", "endDate": "2100-01-01T00:00:00", "HUC": "170602100104", "isActive": true, "mgrs": "11TNK", "mountainRange": "Idaho-Bitterroot Rocky Mountains" }, "geometry": { "type": "Point", "coordinates": [ -116.142929077148438, 44.952220916748047 ] } },
{ "type": "Feature", "properties": { "code": "320_ID_SNTL", "name": "Bear Canyon", "elevation_m": 2407.919921875, "latitude": 43.743671417236328, "longitude": -113.93797302246094, "county": "Custer", "state": "Idaho", "beginDate": "1979-10-01T00:00:00", "endDate": "2100-01-01T00:00:00", "HUC": "170402180101", "isActive": true, "mgrs": "12TTP", "mountainRange": "Idaho-Bitterroot Rocky Mountains" }, "geometry": { "type": "Point", "coordinates": [ -113.937973022460938, 43.743671417236328 ] } },
{ "type": "Feature", "properties": { "code": "321_NV_SNTL", "name": "Bear Creek", "elevation_m": 2450.592041015625, "latitude": 41.833839416503906, "longitude": -115.45278167724609, "county": "Elko", "state": "Nevada", "beginDate": "1976-03-01T00:00:00", "endDate": "2100-01-01T00:00:00", "HUC": "170501020301", "isActive": true, "mgrs": "11TPG", "mountainRange": "Great Basin Ranges" }, "geometry": { "type": "Point", "coordinates": [ -115.452781677246094, 41.833839416503906 ] } },
{ "type": "Feature", "properties": { "code": "1166_OR_SNTL", "name": "Bear Grass", "elevation_m": 1438.656005859375, "latitude": 44.325298309326172, "longitude": -122.09380340576172, "county": "Linn", "state": "Oregon", "beginDate": "2011-07-18T00:00:00", "endDate": "2100-01-01T00:00:00", "HUC": "170900040203", "isActive": true, "mgrs": "10TEQ", "mountainRange": "Cascade Range" }, "geometry": { "type": "Point", "coordinates": [ -122.093803405761719, 44.325298309326172 ] } },
{ "type": "Feature", "properties": { "code": "322_CO_SNTL", "name": "Bear Lake", "elevation_m": 2895.60009765625, "latitude": 40.311180114746094, "longitude": -105.64482879638672, "county": "Larimer", "state": "Colorado", "beginDate": "1979-10-01T00:00:00", "endDate": "2100-01-01T00:00:00", "HUC": "101900060201", "isActive": true, "mgrs": "13TDE", "mountainRange": "Southern Rocky Mountains" }, "geometry": { "type": "Point", "coordinates": [ -105.644828796386719, 40.311180114746094 ] } },
{ "type": "Feature", "properties": { "code": "323_ID_SNTL", "name": "Bear Mountain", "elevation_m": 1645.9200439453125, "latitude": 48.305770874023438, "longitude": -116.07447814941406, "county": "Bonner", "state": "Idaho", "beginDate": "1979-10-01T00:00:00", "endDate": "2100-01-01T00:00:00", "HUC": "170102131202", "isActive": true, "mgrs": "11UNP", "mountainRange": "Central Montana Rocky Mountains" }, "geometry": { "type": "Point", "coordinates": [ -116.074478149414062, 48.305770874023438 ] } },
{ "type": "Feature", "properties": { "code": "1061_CO_SNTL", "name": "Bear River", "elevation_m": 2767.583984375, "latitude": 40.061531066894531, "longitude": -107.00955200195312, "county": "Routt", "state": "Colorado", "beginDate": "2004-10-01T00:00:00", "endDate": "2100-01-01T00:00:00", "HUC": "140500010102", "isActive": true, "mgrs": "13TCE", "mountainRange": "Southern Rocky Mountains" }, "geometry": { "type": "Point", "coordinates": [ -107.009552001953125, 40.061531066894531 ] } },
{ "type": "Feature", "properties": { "code": "992_UT_SNTL", "name": "Bear River RS", "elevation_m": 2675.2294921875, "latitude": 40.885200500488281, "longitude": -110.82769775390625, "county": "Summit", "state": "Utah", "beginDate": "2010-10-28T00:00:00", "endDate": "2100-01-01T00:00:00", "HUC": "160101010106", "isActive": true, "mgrs": "12TWL", "mountainRange": "Western Rocky Mountains" }, "geometry": { "type": "Point", "coordinates": [ -110.82769775390625, 40.885200500488281 ] } },
{ "type": "Feature", "properties": { "code": "324_ID_SNTL", "name": "Bear Saddle", "elevation_m": 1883.6639404296875, "latitude": 44.605331420898438, "longitude": -116.98097229003906, "county": "Washington", "state": "Idaho", "beginDate": "1979-10-01T00:00:00", "endDate": "2100-01-01T00:00:00", "HUC": "170501241001", "isActive": true, "mgrs": "11TNK", "mountainRange": "Columbia Plateau" }, "geometry": { "type": "Point", "coordinates": [ -116.980972290039062, 44.605331420898438 ] } },
{ "type": "Feature", "properties": { "code": "325_WY_SNTL", "name": "Bear Trap Meadow", "elevation_m": 2499.360107421875, "latitude": 43.887428283691406, "longitude": -107.06134796142578, "county": "Johnson", "state": "Wyoming", "beginDate": "1979-10-01T00:00:00", "endDate": "2100-01-01T00:00:00", "HUC": "100902010205", "isActive": true, "mgrs": "13TCJ", "mountainRange": null }, "geometry": { "type": "Point", "coordinates": [ -107.061347961425781, 43.887428283691406 ] } },
{ "type": "Feature", "properties": { "code": "326_WY_SNTL", "name": "Beartooth Lake", "elevation_m": 2852.927978515625, "latitude": 44.943069458007812, "longitude": -109.56742858886719, "county": "Park", "state": "Wyoming", "beginDate": "1979-10-01T00:00:00", "endDate": "2100-01-01T00:00:00", "HUC": "100700060206", "isActive": true, "mgrs": "12TXQ", "mountainRange": "Greater Yellowstone Rockies" }, "geometry": { "type": "Point", "coordinates": [ -109.567428588867188, 44.943069458007812 ] } },
{ "type": "Feature", "properties": { "code": "327_CO_SNTL", "name": "Beartown", "elevation_m": 3535.679931640625, "latitude": 37.714088439941406, "longitude": -107.51212310791016, "county": "Mineral", "state": "Colorado", "beginDate": "1979-10-01T00:00:00", "endDate": "2100-01-01T00:00:00", "HUC": "130100010104", "isActive": true, "mgrs": "13SBB", "mountainRange": "Southern Rocky Mountains" }, "geometry": { "type": "Point", "coordinates": [ -107.512123107910156, 37.714088439941406 ] } },
{ "type": "Feature", "properties": { "code": "1041_CO_SNTL", "name": "Beaver Ck Village", "elevation_m": 2590.800048828125, "latitude": 39.599170684814453, "longitude": -106.51142120361328, "county": "Eagle", "state": "Colorado", "beginDate": "2002-11-01T00:00:00", "endDate": "2100-01-01T00:00:00", "HUC": "140100030301", "isActive": true, "mgrs": "13SCD", "mountainRange": "Southern Rocky Mountains" }, "geometry": { "type": "Point", "coordinates": [ -106.511421203613281, 39.599170684814453 ] } },
{ "type": "Feature", "properties": { "code": "328_MT_SNTL", "name": "Beaver Creek", "elevation_m": 2392.679931640625, "latitude": 44.949661254882812, "longitude": -111.3585205078125, "county": "Gallatin", "state": "Montana", "beginDate": "1966-10-01T00:00:00", "endDate": "2100-01-01T00:00:00", "HUC": "100200070402", "isActive": true, "mgrs": "12TVQ", "mountainRange": "Greater Yellowstone Rockies" }, "geometry": { "type": "Point", "coordinates": [ -111.3585205078125, 44.949661254882812 ] } },
{ "type": "Feature", "properties": { "code": "329_UT_SNTL", "name": "Beaver Dams", "elevation_m": 2435.35205078125, "latitude": 39.136829376220703, "longitude": -111.55812835693359, "county": "Sanpete", "state": "Utah", "beginDate": "1980-06-18T00:00:00", "endDate": "2100-01-01T00:00:00", "HUC": "160300040402", "isActive": true, "mgrs": "12SVJ", "mountainRange": "Colorado Plateau" }, "geometry": { "type": "Point", "coordinates": [ -111.558128356933594, 39.136829376220703 ] } },
{ "type": "Feature", "properties": { "code": "330_UT_SNTL", "name": "Beaver Divide", "elevation_m": 2523.743896484375, "latitude": 40.612331390380859, "longitude": -111.09781646728516, "county": "Summit", "state": "Utah", "beginDate": "1978-10-01T00:00:00", "endDate": "2100-01-01T00:00:00", "HUC": "160202030105", "isActive": true, "mgrs": "12TVK", "mountainRange": "Western Rocky Mountains" }, "geometry": { "type": "Point", "coordinates": [ -111.097816467285156, 40.612331390380859 ] } },
{ "type": "Feature", "properties": { "code": "902_AZ_SNTL", "name": "Beaver Head", "elevation_m": 2435.35205078125, "latitude": 33.691440582275391, "longitude": -109.21656799316406, "county": "Greenlee", "state": "Arizona", "beginDate": "1993-10-01T00:00:00", "endDate": "2100-01-01T00:00:00", "HUC": "150601010107", "isActive": true, "mgrs": "12SXC", "mountainRange": "Colorado Plateau" }, "geometry": { "type": "Point", "coordinates": [ -109.216567993164062, 33.691440582275391 ] } },
{ "type": "Feature", "properties": { "code": "990_WA_SNTL", "name": "Beaver Pass", "elevation_m": 1106.4239501953125, "latitude": 48.879299163818359, "longitude": -121.25550079345703, "county": "Whatcom", "state": "Washington", "beginDate": "2000-10-01T00:00:00", "endDate": "2100-01-01T00:00:00", "HUC": "171100050605", "isActive": true, "mgrs": "10UFV", "mountainRange": "Cascade Range" }, "geometry": { "type": "Point", "coordinates": [ -121.255500793457031, 48.879299163818359 ] } },
{ "type": "Feature", "properties": { "code": "331_OR_SNTL", "name": "Beaver Reservoir", "elevation_m": 1569.719970703125, "latitude": 45.145320892333984, "longitude": -118.21900177001953, "county": "Union", "state": "Oregon", "beginDate": "1979-10-01T00:00:00", "endDate": "2100-01-01T00:00:00", "HUC": "170601040301", "isActive": true, "mgrs": "11TMK", "mountainRange": "Columbia Plateau" }, "geometry": { "type": "Point", "coordinates": [ -118.219001770019531, 45.145320892333984 ] } },
{ "type": "Feature", "properties": { "code": "1143_AZ_SNTL", "name": "Beaver Spring", "elevation_m": 2804.159912109375, "latitude": 36.326778411865234, "longitude": -109.05711364746094, "county": "Apache", "state": "Arizona", "beginDate": "2009-10-01T00:00:00", "endDate": "2100-01-01T00:00:00", "HUC": "140802040401", "isActive": true, "mgrs": "12SXF", "mountainRange": "Colorado Plateau" }, "geometry": { "type": "Point", "coordinates": [ -109.057113647460938, 36.326778411865234 ] } },
{ "type": "Feature", "properties": { "code": "332_UT_SNTL", "name": "Ben Lomond Peak", "elevation_m": 2343.607177734375, "latitude": 41.376029968261719, "longitude": -111.94405364990234, "county": "Weber", "state": "Utah", "beginDate": "1978-10-01T00:00:00", "endDate": "2100-01-01T00:00:00", "HUC": "160201020302", "isActive": true, "mgrs": "12TVL", "mountainRange": "Western Rocky Mountains" }, "geometry": { "type": "Point", "coordinates": [ -111.944053649902344, 41.376029968261719 ] } },
{ "type": "Feature", "properties": { "code": "333_UT_SNTL", "name": "Ben Lomond Trail", "elevation_m": 1820.265625, "latitude": 41.382911682128906, "longitude": -111.92102813720703, "county": "Weber", "state": "Utah", "beginDate": "1980-06-03T00:00:00", "endDate": "2100-01-01T00:00:00", "HUC": "160201020302", "isActive": true, "mgrs": "12TVL", "mountainRange": "Western Rocky Mountains" }, "geometry": { "type": "Point", "coordinates": [ -111.921028137207031, 41.382911682128906 ] } },
{ "type": "Feature", "properties": { "code": "251_ID_SNTL", "name": "Bennett Mountain", "elevation_m": 1999.488037109375, "latitude": 43.266670227050781, "longitude": -115.43332672119141, "county": "Elmore", "state": "Idaho", "beginDate": "1980-08-16T00:00:00", "endDate": "1988-10-01T00:00:00", "HUC": "170501130804", "isActive": false, "mgrs": "11TPH", "mountainRange": "Idaho-Bitterroot Rocky Mountains" }, "geometry": { "type": "Point", "coordinates": [ -115.433326721191406, 43.266670227050781 ] } },
{ "type": "Feature", "properties": { "code": "1086_AK_SNTL", "name": "Bentalit Lodge", "elevation_m": 45.720001220703125, "latitude": 61.93682861328125, "longitude": -150.982666015625, "county": "Matanuska-Susitna", "state": "Alaska", "beginDate": "2006-01-01T00:00:00", "endDate": "2013-06-28T12:00:00", "HUC": "190205042001", "isActive": false, "mgrs": "05VPJ", "mountainRange": null }, "geometry": { "type": "Point", "coordinates": [ -150.982666015625, 61.93682861328125 ] } },
{ "type": "Feature", "properties": { "code": "334_NV_SNTL", "name": "Berry Creek", "elevation_m": 2858.109619140625, "latitude": 39.319171905517578, "longitude": -114.62277984619141, "county": "White Pine", "state": "Nevada", "beginDate": "1980-10-01T00:00:00", "endDate": "2100-01-01T00:00:00", "HUC": "160600081301", "isActive": true, "mgrs": "11SQD", "mountainRange": "Great Basin Ranges" }, "geometry": { "type": "Point", "coordinates": [ -114.622779846191406, 39.319171905517578 ] } },
{ "type": "Feature", "properties": { "code": "335_CO_SNTL", "name": "Berthoud Summit", "elevation_m": 3444.239990234375, "latitude": 39.803920745849609, "longitude": -105.77789306640625, "county": "Grand", "state": "Colorado", "beginDate": "1963-09-01T00:00:00", "endDate": "2100-01-01T00:00:00", "HUC": "140100010202", "isActive": true, "mgrs": "13SDE", "mountainRange": "Southern Rocky Mountains" }, "geometry": { "type": "Point", "coordinates": [ -105.77789306640625, 39.803920745849609 ] } },
{ "type": "Feature", "properties": { "code": "1182_AK_SNTL", "name": "Bettles Field", "elevation_m": 195.07200622558594, "latitude": 66.916671752929688, "longitude": -151.5333251953125, "county": "Yukon-Koyukuk", "state": "Alaska", "beginDate": "1980-10-01T00:00:00", "endDate": "2100-01-01T00:00:00", "HUC": "190901012604", "isActive": true, "mgrs": "05WNQ", "mountainRange": null }, "geometry": { "type": "Point", "coordinates": [ -151.5333251953125, 66.916671752929688 ] } },
{ "type": "Feature", "properties": { "code": "1214_UT_SNTL", "name": "Bevans Cabin", "elevation_m": 1987.2960205078125, "latitude": 40.461818695068359, "longitude": -112.25232696533203, "county": "Tooele", "state": "Utah", "beginDate": "2012-10-01T00:00:00", "endDate": "2100-01-01T00:00:00", "HUC": "160203040401", "isActive": true, "mgrs": "12TUK", "mountainRange": "Great Basin Ranges" }, "geometry": { "type": "Point", "coordinates": [ -112.252326965332031, 40.461818695068359 ] } },
{ "type": "Feature", "properties": { "code": "336_NV_SNTL", "name": "Big Bend", "elevation_m": 2102.510498046875, "latitude": 41.761680603027344, "longitude": -115.69309997558594, "county": "Elko", "state": "Nevada", "beginDate": "1978-10-01T00:00:00", "endDate": "2100-01-01T00:00:00", "HUC": "170501040104", "isActive": true, "mgrs": "11TPG", "mountainRange": null }, "geometry": { "type": "Point", "coordinates": [ -115.693099975585938, 41.761680603027344 ] } },
{ "type": "Feature", "properties": { "code": "337_NV_SNTL", "name": "Big Creek Sum", "elevation_m": 2647.18798828125, "latitude": 39.291481018066406, "longitude": -117.11505889892578, "county": "Lander", "state": "Nevada", "beginDate": "1980-10-01T00:00:00", "endDate": "2100-01-01T00:00:00", "HUC": "160401070303", "isActive": true, "mgrs": "11SMD", "mountainRange": "Great Basin Ranges" }, "geometry": { "type": "Point", "coordinates": [ -117.115058898925781, 39.291481018066406 ] } },
{ "type": "Feature", "properties": { "code": "338_ID_SNTL", "name": "Big Creek Summit", "elevation_m": 1999.488037109375, "latitude": 44.626209259033203, "longitude": -115.79560852050781, "county": "Valley", "state": "Idaho", "beginDate": "1979-10-01T00:00:00", "endDate": "2100-01-01T00:00:00", "HUC": "170602080402", "isActive": true, "mgrs": "11TNK", "mountainRange": "Idaho-Bitterroot Rocky Mountains" }, "geometry": { "type": "Point", "coordinates": [ -115.795608520507812, 44.626209259033203 ] } },
{ "type": "Feature", "properties": { "code": "339_UT_SNTL", "name": "Big Flat", "elevation_m": 3154.375244140625, "latitude": 38.301830291748047, "longitude": -112.35671997070312, "county": "Beaver", "state": "Utah", "beginDate": "1978-10-01T00:00:00", "endDate": "2100-01-01T00:00:00", "HUC": "160300070202", "isActive": true, "mgrs": "12SUH", "mountainRange": "Colorado Plateau" }, "geometry": { "type": "Point", "coordinates": [ -112.356719970703125, 38.301830291748047 ] } },
{ "type": "Feature", "properties": { "code": "931_WY_SNTL", "name": "Big Goose", "elevation_m": 2435.35205078125, "latitude": 44.579238891601562, "longitude": -107.20068359375, "county": "Sheridan", "state": "Wyoming", "beginDate": "1998-07-22T06:00:00", "endDate": "2100-01-01T00:00:00", "HUC": "100901010103", "isActive": true, "mgrs": "13TCK", "mountainRange": "Greater Yellowstone Rockies" }, "geometry": { "type": "Point", "coordinates": [ -107.20068359375, 44.579238891601562 ] } },
{ "type": "Feature", "properties": { "code": "340_NV_SNTL", "name": "Big Meadow", "elevation_m": 2510.028076171875, "latitude": 39.455001831054688, "longitude": -119.94219970703125, "county": "Washoe", "state": "Nevada", "beginDate": "1983-10-01T00:00:00", "endDate": "2100-01-01T00:00:00", "HUC": "160501020505", "isActive": true, "mgrs": "11SKD", "mountainRange": "Sierra Nevada" }, "geometry": { "type": "Point", "coordinates": [ -119.94219970703125, 39.455001831054688 ] } },
{ "type": "Feature", "properties": { "code": "341_OR_SNTL", "name": "Big Red Mountain", "elevation_m": 1844.0400390625, "latitude": 42.052570343017578, "longitude": -122.85487365722656, "county": "Jackson", "state": "Oregon", "beginDate": "1979-10-01T00:00:00", "endDate": "2100-01-01T00:00:00", "HUC": "171003090301", "isActive": true, "mgrs": "10TEM", "mountainRange": "Klamath Mountains" }, "geometry": { "type": "Point", "coordinates": [ -122.854873657226562, 42.052570343017578 ] } },
{ "type": "Feature", "properties": { "code": "342_WY_SNTL", "name": "Big Sandy Opening", "elevation_m": 2767.583984375, "latitude": 42.645801544189453, "longitude": -109.25965118408203, "county": "Sublette", "state": "Wyoming", "beginDate": "1963-03-01T00:00:00", "endDate": "2100-01-01T00:00:00", "HUC": "140401040101", "isActive": true, "mgrs": "12TXN", "mountainRange": "Greater Yellowstone Rockies" }, "geometry": { "type": "Point", "coordinates": [ -109.259651184082031, 42.645801544189453 ] } },
{ "type": "Feature", "properties": { "code": "343_OR_SNTL", "name": "Bigelow Camp", "elevation_m": 1563.6240234375, "latitude": 42.078750610351562, "longitude": -123.34393310546875, "county": "Josephine", "state": "Oregon", "beginDate": "1979-10-01T00:00:00", "endDate": "2100-01-01T00:00:00", "HUC": "171003090105", "isActive": true, "mgrs": "10TDM", "mountainRange": "Klamath Mountains" }, "geometry": { "type": "Point", "coordinates": [ -123.34393310546875, 42.078750610351562 ] } },
{ "type": "Feature", "properties": { "code": "344_OR_SNTL", "name": "Billie Creek Divide", "elevation_m": 1609.343994140625, "latitude": 42.407169342041016, "longitude": -122.26616668701172, "county": "Klamath", "state": "Oregon", "beginDate": "1978-10-01T00:00:00", "endDate": "2100-01-01T00:00:00", "HUC": "180102030201", "isActive": true, "mgrs": "10TEM", "mountainRange": "Cascade Range" }, "geometry": { "type": "Point", "coordinates": [ -122.266166687011719, 42.407169342041016 ] } },
{ "type": "Feature", "properties": { "code": "1155_NV_SNTL", "name": "Bird Creek", "elevation_m": 2297.277587890625, "latitude": 39.461380004882812, "longitude": -114.64862823486328, "county": "White Pine", "state": "Nevada", "beginDate": "2011-10-01T00:00:00", "endDate": "2100-01-01T00:00:00", "HUC": "160600081304", "isActive": true, "mgrs": "11SQD", "mountainRange": "Great Basin Ranges" }, "geometry": { "type": "Point", "coordinates": [ -114.648628234863281, 39.461380004882812 ] } },
{ "type": "Feature", "properties": { "code": "345_CO_SNTL", "name": "Bison Lake", "elevation_m": 3316.22412109375, "latitude": 39.764869689941406, "longitude": -107.3568115234375, "county": "Garfield", "state": "Colorado", "beginDate": "1985-09-30T00:00:00", "endDate": "2100-01-01T00:00:00", "HUC": "140100011401", "isActive": true, "mgrs": "13SBE", "mountainRange": "Southern Rocky Mountains" }, "geometry": { "type": "Point", "coordinates": [ -107.3568115234375, 39.764869689941406 ] } },
{ "type": "Feature", "properties": { "code": "346_MT_SNTL", "name": "Bisson Creek", "elevation_m": 1499.615966796875, "latitude": 47.683891296386719, "longitude": -113.99900817871094, "county": "Lake", "state": "Montana", "beginDate": "1988-10-01T00:00:00", "endDate": "2100-01-01T00:00:00", "HUC": "170102120602", "isActive": true, "mgrs": "12TTT", "mountainRange": "Central Montana Rocky Mountains" }, "geometry": { "type": "Point", "coordinates": [ -113.999008178710938, 47.683891296386719 ] } },
{ "type": "Feature", "properties": { "code": "347_MT_SNTL", "name": "Black Bear", "elevation_m": 2490.216064453125, "latitude": 44.508319854736328, "longitude": -111.12802886962891, "county": "Gallatin", "state": "Montana", "beginDate": "1967-10-01T00:00:00", "endDate": "2100-01-01T00:00:00", "HUC": "100200070202", "isActive": true, "mgrs": "12TVQ", "mountainRange": null }, "geometry": { "type": "Point", "coordinates": [ -111.128028869628906, 44.508319854736328 ] } },
{ "type": "Feature", "properties": { "code": "348_UT_SNTL", "name": "Black Flat-U.M. Ck", "elevation_m": 2869.38720703125, "latitude": 38.679901123046875, "longitude": -111.59764862060547, "county": "Sevier", "state": "Utah", "beginDate": "1980-06-19T00:00:00", "endDate": "2100-01-01T00:00:00", "HUC": "140700030101", "isActive": true, "mgrs": "12SVH", "mountainRange": "Colorado Plateau" }, "geometry": { "type": "Point", "coordinates": [ -111.597648620605469, 38.679901123046875 ] } },
{ "type": "Feature", "properties": { "code": "1185_CO_SNTL", "name": "Black Mesa", "elevation_m": 3529.583984375, "latitude": 37.789718627929688, "longitude": -108.18364715576172, "county": "Dolores", "state": "Colorado", "beginDate": "2011-07-28T13:00:00", "endDate": "2100-01-01T00:00:00", "HUC": "140300020103", "isActive": true, "mgrs": "12SYG", "mountainRange": "Southern Rocky Mountains" }, "geometry": { "type": "Point", "coordinates": [ -108.183647155761719, 37.789718627929688 ] } },
{ "type": "Feature", "properties": { "code": "1161_CO_SNTL", "name": "Black Mountain", "elevation_m": 2718.81591796875, "latitude": 40.88800048828125, "longitude": -105.66397094726562, "county": "Larimer", "state": "Colorado", "beginDate": "2010-10-01T00:00:00", "endDate": "2100-01-01T00:00:00", "HUC": "101900070501", "isActive": true, "mgrs": "13TDF", "mountainRange": "Southern Rocky Mountains" }, "geometry": { "type": "Point", "coordinates": [ -105.663970947265625, 40.88800048828125 ] } },
{ "type": "Feature", "properties": { "code": "349_MT_SNTL", "name": "Black Pine", "elevation_m": 2197.60791015625, "latitude": 46.41400146484375, "longitude": -113.43094635009766, "county": "Granite", "state": "Montana", "beginDate": "1965-10-01T00:00:00", "endDate": "2100-01-01T00:00:00", "HUC": "170102020203", "isActive": true, "mgrs": "12TUS", "mountainRange": "Central Montana Rocky Mountains" }, "geometry": { "type": "Point", "coordinates": [ -113.430946350097656, 46.41400146484375 ] } },
{ "type": "Feature", "properties": { "code": "1119_WY_SNTL", "name": "Blackhall Mtn", "elevation_m": 2993.135986328125, "latitude": 41.056159973144531, "longitude": -106.71383666992188, "county": "Carbon", "state": "Wyoming", "beginDate": "2009-08-07T06:00:00", "endDate": "2100-01-01T00:00:00", "HUC": "101800020504", "isActive": true, "mgrs": "13TCF", "mountainRange": "Southern Rocky Mountains" }, "geometry": { "type": "Point", "coordinates": [ -106.713836669921875, 41.056159973144531 ] } },
{ "type": "Feature", "properties": { "code": "1162_UT_SNTL", "name": "Blacks Fork Jct", "elevation_m": 2703.271240234375, "latitude": 40.958141326904297, "longitude": -110.58280181884766, "county": "Summit", "state": "Utah", "beginDate": "2010-10-23T00:00:00", "endDate": "2100-01-01T00:00:00", "HUC": "140401070303", "isActive": true, "mgrs": "12TWL", "mountainRange": null }, "geometry": { "type": "Point", "coordinates": [ -110.582801818847656, 40.958141326904297 ] } },
{ "type": "Feature", "properties": { "code": "1144_MT_SNTL", "name": "Blacktail Mtn", "elevation_m": 1722.1199951171875, "latitude": 47.982879638671875, "longitude": -114.35430145263672, "county": "Flathead", "state": "Montana", "beginDate": "2010-08-25T00:00:00", "endDate": "2100-01-01T00:00:00", "HUC": "170102080302", "isActive": true, "mgrs": "11TPP", "mountainRange": "Central Montana Rocky Mountains" }, "geometry": { "type": "Point", "coordinates": [ -114.354301452636719, 47.982879638671875 ] } },
{ "type": "Feature", "properties": { "code": "350_WY_SNTL", "name": "Blackwater", "elevation_m": 2980.944091796875, "latitude": 44.376670837402344, "longitude": -109.79332733154297, "county": "Park", "state": "Wyoming", "beginDate": "1979-10-01T00:00:00", "endDate": "2100-01-01T00:00:00", "HUC": "100800120209", "isActive": true, "mgrs": "12TWQ", "mountainRange": "Greater Yellowstone Rockies" }, "geometry": { "type": "Point", "coordinates": [ -109.793327331542969, 44.376670837402344 ] } },
{ "type": "Feature", "properties": { "code": "351_OR_SNTL", "name": "Blazed Alder", "elevation_m": 1112.52001953125, "latitude": 45.428699493408203, "longitude": -121.85604858398438, "county": "Clackamas", "state": "Oregon", "beginDate": "1979-10-01T00:00:00", "endDate": "2100-01-01T00:00:00", "HUC": "170800010102", "isActive": true, "mgrs": "10TER", "mountainRange": "Cascade Range" }, "geometry": { "type": "Point", "coordinates": [ -121.856048583984375, 45.428699493408203 ] } },
{ "type": "Feature", "properties": { "code": "352_WA_SNTL", "name": "Blewett Pass", "elevation_m": 1292.35205078125, "latitude": 47.350368499755859, "longitude": -120.67960357666016, "county": "Chelan", "state": "Washington", "beginDate": "1979-10-01T00:00:00", "endDate": "2100-01-01T00:00:00", "HUC": "170200110501", "isActive": true, "mgrs": "10TFT", "mountainRange": "Cascade Range" }, "geometry": { "type": "Point", "coordinates": [ -120.679603576660156, 47.350368499755859 ] } },
{ "type": "Feature", "properties": { "code": "353_WY_SNTL", "name": "Blind Bull Sum", "elevation_m": 2636.52001953125, "latitude": 42.964000701904297, "longitude": -110.60973358154297, "county": "Sublette", "state": "Wyoming", "beginDate": "1978-10-01T00:00:00", "endDate": "2100-01-01T00:00:00", "HUC": "140401010402", "isActive": true, "mgrs": "12TWN", "mountainRange": "Western Rocky Mountains" }, "geometry": { "type": "Point", "coordinates": [ -110.609733581542969, 42.964000701904297 ] } },
{ "type": "Feature", "properties": { "code": "354_SD_SNTL", "name": "Blind Park", "elevation_m": 2100.072021484375, "latitude": 44.107719421386719, "longitude": -103.97688293457031, "county": "Pennington", "state": "South Dakota", "beginDate": "1989-10-01T00:00:00", "endDate": "2100-01-01T00:00:00", "HUC": "101201100104", "isActive": true, "mgrs": "13TEJ", "mountainRange": null }, "geometry": { "type": "Point", "coordinates": [ -103.976882934570312, 44.107719421386719 ] } },
{ "type": "Feature", "properties": { "code": "355_MT_SNTL", "name": "Bloody Dick", "elevation_m": 2316.47998046875, "latitude": 45.165069580078125, "longitude": -113.50099182128906, "county": "Beaverhead", "state": "Montana", "beginDate": "1976-10-01T00:00:00", "endDate": "2100-01-01T00:00:00", "HUC": "100200011002", "isActive": true, "mgrs": "12TUR", "mountainRange": "Idaho-Bitterroot Rocky Mountains" }, "geometry": { "type": "Point", "coordinates": [ -113.500991821289062, 45.165069580078125 ] } },
{ "type": "Feature", "properties": { "code": "356_CA_SNTL", "name": "Blue Lakes", "elevation_m": 2458.821533203125, "latitude": 38.608001708984375, "longitude": -119.92436981201172, "county": "Alpine", "state": "California", "beginDate": "1980-10-01T00:00:00", "endDate": "2100-01-01T00:00:00", "HUC": "180400120101", "isActive": true, "mgrs": "11SKC", "mountainRange": "Sierra Nevada" }, "geometry": { "type": "Point", "coordinates": [ -119.924369812011719, 38.608001708984375 ] } },
{ "type": "Feature", "properties": { "code": "357_OR_SNTL", "name": "Blue Mountain Spring", "elevation_m": 1789.176025390625, "latitude": 44.247669219970703, "longitude": -118.51721954345703, "county": "Grant", "state": "Oregon", "beginDate": "1978-10-01T00:00:00", "endDate": "2100-01-01T00:00:00", "HUC": "170501160104", "isActive": true, "mgrs": "11TLK", "mountainRange": "Columbia Plateau" }, "geometry": { "type": "Point", "coordinates": [ -118.517219543457031, 44.247669219970703 ] } },
{ "type": "Feature", "properties": { "code": "1278_UT_SNTL", "name": "Bobs Hollow", "elevation_m": 2840.43115234375, "latitude": 38.945690155029297, "longitude": -112.15348815917969, "county": "Millard", "state": "Utah", "beginDate": "2016-10-06T00:00:00", "endDate": "2100-01-01T00:00:00", "HUC": "160300051401", "isActive": true, "mgrs": "12SVJ", "mountainRange": "Colorado Plateau" }, "geometry": { "type": "Point", "coordinates": [ -112.153488159179688, 38.945690155029297 ] } },
{ "type": "Feature", "properties": { "code": "978_ID_SNTL", "name": "Bogus Basin", "elevation_m": 1932.4320068359375, "latitude": 43.763771057128906, "longitude": -116.09684753417969, "county": "Boise", "state": "Idaho", "beginDate": "1999-09-21T14:00:00", "endDate": "2100-01-01T00:00:00", "HUC": "170501220201", "isActive": true, "mgrs": "11TNJ", "mountainRange": "Idaho-Bitterroot Rocky Mountains" }, "geometry": { "type": "Point", "coordinates": [ -116.096847534179688, 43.763771057128906 ] } },
{ "type": "Feature", "properties": { "code": "358_WY_SNTL", "name": "Bone Springs Div", "elevation_m": 2849.8798828125, "latitude": 44.678878784179688, "longitude": -107.58110046386719, "county": "Sheridan", "state": "Wyoming", "beginDate": "1978-10-01T00:00:00", "endDate": "2100-01-01T00:00:00", "HUC": "100800100102", "isActive": true, "mgrs": "13TBK", "mountainRange": "Greater Yellowstone Rockies" }, "geometry": { "type": "Point", "coordinates": [ -107.581100463867188, 44.678878784179688 ] } },
{ "type": "Feature", "properties": { "code": "359_ID_SNTL", "name": "Bostetter R.S.", "elevation_m": 2286.0, "latitude": 42.164421081542969, "longitude": -114.19271850585938, "county": "Cassia", "state": "Idaho", "beginDate": "1979-10-01T00:00:00", "endDate": "2100-01-01T00:00:00", "HUC": "170402120201", "isActive": true, "mgrs": "11TQG", "mountainRange": "Great Basin Ranges" }, "geometry": { "type": "Point", "coordinates": [ -114.192718505859375, 42.164421081542969 ] } },
{ "type": "Feature", "properties": { "code": "360_MT_SNTL", "name": "Boulder Mountain", "elevation_m": 2423.159912109375, "latitude": 46.559600830078125, "longitude": -111.28972625732422, "county": "Meagher", "state": "Montana", "beginDate": "1976-10-01T00:00:00", "endDate": "2100-01-01T00:00:00", "HUC": "100301030501", "isActive": true, "mgrs": "12TVS", "mountainRange": "Central Montana Rocky Mountains" }, "geometry": { "type": "Point", "coordinates": [ -111.289726257324219, 46.559600830078125 ] } },
{ "type": "Feature", "properties": { "code": "361_OR_SNTL", "name": "Bourne", "elevation_m": 1783.0799560546875, "latitude": 44.830520629882812, "longitude": -118.1878662109375, "county": "Baker", "state": "Oregon", "beginDate": "1978-10-01T00:00:00", "endDate": "2100-01-01T00:00:00", "HUC": "170502030101", "isActive": true, "mgrs": "11TMK", "mountainRange": "Columbia Plateau" }, "geometry": { "type": "Point", "coordinates": [ -118.1878662109375, 44.830520629882812 ] } },
{ "type": "Feature", "properties": { "code": "362_OR_SNTL", "name": "Bowman Springs", "elevation_m": 1380.7440185546875, "latitude": 45.364280700683594, "longitude": -118.46714782714844, "county": "Umatilla", "state": "Oregon", "beginDate": "1978-10-01T00:00:00", "endDate": "2100-01-01T00:00:00", "HUC": "170701030401", "isActive": true, "mgrs": "11TLL", "mountainRange": null }, "geometry": { "type": "Point", "coordinates": [ -118.467147827148438, 45.364280700683594 ] } },
{ "type": "Feature", "properties": { "code": "363_MT_SNTL", "name": "Box Canyon", "elevation_m": 2033.0159912109375, "latitude": 45.271900177001953, "longitude": -110.24903106689453, "county": "Park", "state": "Montana", "beginDate": "1976-10-01T00:00:00", "endDate": "2100-01-01T00:00:00", "HUC": "100700020902", "isActive": true, "mgrs": "12TWR", "mountainRange": "Greater Yellowstone Rockies" }, "geometry": { "type": "Point", "coordinates": [ -110.249031066894531, 45.271900177001953 ] } },
{ "type": "Feature", "properties": { "code": "364_UT_SNTL", "name": "Box Creek", "elevation_m": 3003.1943359375, "latitude": 38.508090972900391, "longitude": -112.01856231689453, "county": "Sevier", "state": "Utah", "beginDate": "1979-08-04T00:00:00", "endDate": "2100-01-01T00:00:00", "HUC": "160300020106", "isActive": true, "mgrs": "12SVH", "mountainRange": "Colorado Plateau" }, "geometry": { "type": "Point", "coordinates": [ -112.018562316894531, 38.508090972900391 ] } },
{ "type": "Feature", "properties": { "code": "1156_UT_SNTL", "name": "Box Springs", "elevation_m": 2812.6943359375, "latitude": 38.497459411621094, "longitude": -112.00778961181641, "county": "Piute", "state": "Utah", "beginDate": "2010-10-01T00:00:00", "endDate": "2100-01-01T00:00:00", "HUC": "160300020107", "isActive": true, "mgrs": "12SVH", "mountainRange": "Colorado Plateau" }, "geometry": { "type": "Point", "coordinates": [ -112.007789611816406, 38.497459411621094 ] } },
{ "type": "Feature", "properties": { "code": "365_MT_SNTL", "name": "Brackett Creek", "elevation_m": 2231.135986328125, "latitude": 45.891071319580078, "longitude": -110.93850708007812, "county": "Gallatin", "state": "Montana", "beginDate": "1992-08-01T00:00:00", "endDate": "2100-01-01T00:00:00", "HUC": "100700030403", "isActive": true, "mgrs": "12TWR", "mountainRange": "Central Montana Rocky Mountains" }, "geometry": { "type": "Point", "coordinates": [ -110.938507080078125, 45.891071319580078 ] } },
{ "type": "Feature", "properties": { "code": "1154_UT_SNTL", "name": "Brian Head", "elevation_m": 3059.88720703125, "latitude": 37.679939270019531, "longitude": -112.85674285888672, "county": "Iron", "state": "Utah", "beginDate": "2011-10-01T00:00:00", "endDate": "2100-01-01T00:00:00", "HUC": "160300060201", "isActive": true, "mgrs": "12SUG", "mountainRange": "Colorado Plateau" }, "geometry": { "type": "Point", "coordinates": [ -112.856742858886719, 37.679939270019531 ] } },
{ "type": "Feature", "properties": { "code": "252_MT_SNTL", "name": "BRIDGER BOWL", "elevation_m": 2209.800048828125, "latitude": 45.799999237060547, "longitude": -110.91667175292969, "county": "Gallatin", "state": "Montana", "beginDate": "1965-10-01T00:00:00", "endDate": "1997-10-01T00:00:00", "HUC": "100200080801", "isActive": false, "mgrs": "12TWR", "mountainRange": "Central Montana Rocky Mountains" }, "geometry": { "type": "Point", "coordinates": [ -110.916671752929688, 45.799999237060547 ] } },
{ "type": "Feature", "properties": { "code": "366_UT_SNTL", "name": "Brighton", "elevation_m": 2671.876708984375, "latitude": 40.599361419677734, "longitude": -111.58167266845703, "county": "Salt Lake", "state": "Utah", "beginDate": "1986-09-24T00:00:00", "endDate": "2100-01-01T00:00:00", "HUC": "160202040201", "isActive": true, "mgrs": "12TVK", "mountainRange": "Western Rocky Mountains" }, "geometry": { "type": "Point", "coordinates": [ -111.581672668457031, 40.599361419677734 ] } },
{ "type": "Feature", "properties": { "code": "1111_NV_SNTL", "name": "Bristlecone Trail", "elevation_m": 2709.672119140625, "latitude": 36.315750122070312, "longitude": -115.69542694091797, "county": "Clark", "state": "Nevada", "beginDate": "2008-10-01T00:00:00", "endDate": "2100-01-01T00:00:00", "HUC": "150100150206", "isActive": true, "mgrs": "11SPA", "mountainRange": "Great Basin Ranges" }, "geometry": { "type": "Point", "coordinates": [ -115.695426940917969, 36.315750122070312 ] } },
{ "type": "Feature", "properties": { "code": "367_WY_SNTL", "name": "Brooklyn Lake", "elevation_m": 3121.152099609375, "latitude": 41.358848571777344, "longitude": -106.23209381103516, "county": "Albany", "state": "Wyoming", "beginDate": "1962-10-01T00:00:00", "endDate": "2100-01-01T00:00:00", "HUC": "101800100502", "isActive": true, "mgrs": "13TCF", "mountainRange": "Southern Rocky Mountains" }, "geometry": { "type": "Point", "coordinates": [ -106.232093811035156, 41.358848571777344 ] } },
{ "type": "Feature", "properties": { "code": "368_UT_SNTL", "name": "Brown Duck", "elevation_m": 3222.955078125, "latitude": 40.581020355224609, "longitude": -110.58586883544922, "county": "Duchesne", "state": "Utah", "beginDate": "1978-10-01T00:00:00", "endDate": "2100-01-01T00:00:00", "HUC": "140600030604", "isActive": true, "mgrs": "12TWK", "mountainRange": "Western Rocky Mountains" }, "geometry": { "type": "Point", "coordinates": [ -110.585868835449219, 40.581020355224609 ] } },
{ "type": "Feature", "properties": { "code": "1080_WA_SNTL", "name": "Brown Top", "elevation_m": 1776.9840087890625, "latitude": 48.92755126953125, "longitude": -121.19712829589844, "county": "Whatcom", "state": "Washington", "beginDate": "2009-09-15T11:00:00", "endDate": "2100-01-01T00:00:00", "HUC": "171100050601", "isActive": true, "mgrs": "10UFV", "mountainRange": "Cascade Range" }, "geometry": { "type": "Point", "coordinates": [ -121.197128295898438, 48.92755126953125 ] } },
{ "type": "Feature", "properties": { "code": "369_CO_SNTL", "name": "Brumley", "elevation_m": 3230.8798828125, "latitude": 39.087661743164062, "longitude": -106.54170227050781, "county": "Lake", "state": "Colorado", "beginDate": "1979-10-01T00:00:00", "endDate": "2100-01-01T00:00:00", "HUC": "110200010101", "isActive": true, "mgrs": "13SCD", "mountainRange": "Southern Rocky Mountains" }, "geometry": { "type": "Point", "coordinates": [ -106.541702270507812, 39.087661743164062 ] } },
{ "type": "Feature", "properties": { "code": "370_ID_SNTL", "name": "Brundage Reservoir", "elevation_m": 1905.0, "latitude": 45.04315185546875, "longitude": -116.13253021240234, "county": "Adams", "state": "Idaho", "beginDate": "1985-10-01T00:00:00", "endDate": "2100-01-01T00:00:00", "HUC": "170602100104", "isActive": true, "mgrs": "11TNK", "mountainRange": "Idaho-Bitterroot Rocky Mountains" }, "geometry": { "type": "Point", "coordinates": [ -116.132530212402344, 45.04315185546875 ] } },
{ "type": "Feature", "properties": { "code": "371_UT_SNTL", "name": "Buck Flat", "elevation_m": 2867.86328125, "latitude": 39.133998870849609, "longitude": -111.43721771240234, "county": "Sanpete", "state": "Utah", "beginDate": "1978-10-01T00:00:00", "endDate": "2100-01-01T00:00:00", "HUC": "140600090302", "isActive": true, "mgrs": "12SVJ", "mountainRange": "Colorado Plateau" }, "geometry": { "type": "Point", "coordinates": [ -111.437217712402344, 39.133998870849609 ] } },
{ "type": "Feature", "properties": { "code": "1192_UT_SNTL", "name": "Buck Pasture", "elevation_m": 2935.83349609375, "latitude": 40.844558715820312, "longitude": -110.66068267822266, "county": "Summit", "state": "Utah", "beginDate": "2011-11-23T00:00:00", "endDate": "2100-01-01T00:00:00", "HUC": "140401070301", "isActive": true, "mgrs": "12TWL", "mountainRange": "Western Rocky Mountains" }, "geometry": { "type": "Point", "coordinates": [ -110.660682678222656, 40.844558715820312 ] } },
{ "type": "Feature", "properties": { "code": "372_AZ_SNTL", "name": "Buck Spring", "elevation_m": 2255.52001953125, "latitude": 34.114120483398438, "longitude": -109.84761810302734, "county": "Apache", "state": "Arizona", "beginDate": "1984-06-01T00:00:00", "endDate": "1997-10-01T00:00:00", "HUC": "150200050101", "isActive": false, "mgrs": "12SXC", "mountainRange": null }, "geometry": { "type": "Point", "coordinates": [ -109.847618103027344, 34.114120483398438 ] } },
{ "type": "Feature", "properties": { "code": "1153_UT_SNTL", "name": "Buckboard Flat", "elevation_m": 2720.03515625, "latitude": 37.869430541992188, "longitude": -109.44716644287109, "county": "San Juan", "state": "Utah", "beginDate": "2012-10-01T00:00:00", "endDate": "2100-01-01T00:00:00", "HUC": "140802030103", "isActive": true, "mgrs": "12SXG", "mountainRange": "Colorado Plateau" }, "geometry": { "type": "Point", "coordinates": [ -109.447166442871094, 37.869430541992188 ] } },
{ "type": "Feature", "properties": { "code": "1107_WA_SNTL", "name": "Buckinghorse", "elevation_m": 1484.3759765625, "latitude": 47.708599090576172, "longitude": -123.45747375488281, "county": "Jefferson", "state": "Washington", "beginDate": "2008-06-19T00:00:00", "endDate": "2100-01-01T00:00:00", "HUC": "171100200501", "isActive": true, "mgrs": "10TDT", "mountainRange": "Olympic Mountains" }, "geometry": { "type": "Point", "coordinates": [ -123.457473754882812, 47.708599090576172 ] } },
{ "type": "Feature", "properties": { "code": "938_CO_SNTL", "name": "Buckskin Joe", "elevation_m": 3398.52001953125, "latitude": 39.303501129150391, "longitude": -106.11306762695312, "county": "Park", "state": "Colorado", "beginDate": "1998-08-10T09:00:00", "endDate": "2100-01-01T00:00:00", "HUC": "101900010102", "isActive": true, "mgrs": "13SDD", "mountainRange": "Southern Rocky Mountains" }, "geometry": { "type": "Point", "coordinates": [ -106.113067626953125, 39.303501129150391 ] } },
{ "type": "Feature", "properties": { "code": "373_NV_SNTL", "name": "Buckskin Lower", "elevation_m": 2112.263916015625, "latitude": 41.75067138671875, "longitude": -117.53182220458984, "county": "Humboldt", "state": "Nevada", "beginDate": "1980-10-01T00:00:00", "endDate": "2100-01-01T00:00:00", "HUC": "160401090502", "isActive": true, "mgrs": "11TMG", "mountainRange": "Great Basin Ranges" }, "geometry": { "type": "Point", "coordinates": [ -117.531822204589844, 41.75067138671875 ] } },
{ "type": "Feature", "properties": { "code": "913_CO_SNTL", "name": "Buffalo Park", "elevation_m": 2816.35205078125, "latitude": 40.228610992431641, "longitude": -106.59528350830078, "county": "Grand", "state": "Colorado", "beginDate": "1995-09-01T00:00:00", "endDate": "2100-01-01T00:00:00", "HUC": "140100010706", "isActive": true, "mgrs": "13TCE", "mountainRange": "Southern Rocky Mountains" }, "geometry": { "type": "Point", "coordinates": [ -106.595283508300781, 40.228610992431641 ] } },
{ "type": "Feature", "properties": { "code": "374_UT_SNTL", "name": "Bug Lake", "elevation_m": 2434.4375, "latitude": 41.685409545898438, "longitude": -111.41986846923828, "county": "Rich", "state": "Utah", "beginDate": "1978-10-01T00:00:00", "endDate": "2100-01-01T00:00:00", "HUC": "160102010102", "isActive": true, "mgrs": "12TVM", "mountainRange": "Western Rocky Mountains" }, "geometry": { "type": "Point", "coordinates": [ -111.419868469238281, 41.685409545898438 ] } },
{ "type": "Feature", "properties": { "code": "375_WA_SNTL", "name": "Bumping Ridge", "elevation_m": 1405.1280517578125, "latitude": 46.810031890869141, "longitude": -121.33058166503906, "county": "Yakima", "state": "Washington", "beginDate": "1978-10-01T00:00:00", "endDate": "2100-01-01T00:00:00", "HUC": "170300020105", "isActive": true, "mgrs": "10TFS", "mountainRange": "Cascade Range" }, "geometry": { "type": "Point", "coordinates": [ -121.330581665039062, 46.810031890869141 ] } },
{ "type": "Feature", "properties": { "code": "376_WA_SNTL", "name": "Bunchgrass Mdw", "elevation_m": 1524.0, "latitude": 48.686878204345703, "longitude": -117.17633056640625, "county": "Pend Oreille", "state": "Washington", "beginDate": "1979-10-01T00:00:00", "endDate": "2100-01-01T00:00:00", "HUC": "170102160401", "isActive": true, "mgrs": "11UMP", "mountainRange": "Columbia Mountains" }, "geometry": { "type": "Point", "coordinates": [ -117.17633056640625, 48.686878204345703 ] } },
{ "type": "Feature", "properties": { "code": "377_WY_SNTL", "name": "Burgess Junction", "elevation_m": 2401.823974609375, "latitude": 44.787651062011719, "longitude": -107.52916717529297, "county": "Sheridan", "state": "Wyoming", "beginDate": "1979-10-01T00:00:00", "endDate": "2100-01-01T00:00:00", "HUC": "100901010202", "isActive": true, "mgrs": "13TBK", "mountainRange": null }, "geometry": { "type": "Point", "coordinates": [ -107.529167175292969, 44.787651062011719 ] } },
{ "type": "Feature", "properties": { "code": "1051_CA_SNTL", "name": "Burnside Lake", "elevation_m": 2477.71923828125, "latitude": 38.719429016113281, "longitude": -119.89420318603516, "county": "Alpine", "state": "California", "beginDate": "2003-10-01T00:00:00", "endDate": "2100-01-01T00:00:00", "HUC": "160502010107", "isActive": true, "mgrs": "11SKC", "mountainRange": "Sierra Nevada" }, "geometry": { "type": "Point", "coordinates": [ -119.894203186035156, 38.719429016113281 ] } },
{ "type": "Feature", "properties": { "code": "942_WA_SNTL", "name": "Burnt Mountain", "elevation_m": 1271.0159912109375, "latitude": 47.044399261474609, "longitude": -121.94032287597656, "county": "Pierce", "state": "Washington", "beginDate": "1999-07-01T00:00:00", "endDate": "2100-01-01T00:00:00", "HUC": "171100140103", "isActive": true, "mgrs": "10TET", "mountainRange": "Cascade Range" }, "geometry": { "type": "Point", "coordinates": [ -121.940322875976562, 47.044399261474609 ] } },
{ "type": "Feature", "properties": { "code": "981_MT_SNTL", "name": "Burnt Mtn", "elevation_m": 1792.2239990234375, "latitude": 45.240100860595703, "longitude": -109.45960998535156, "county": "Carbon", "state": "Montana", "beginDate": "2000-09-30T00:00:00", "endDate": "2100-01-01T00:00:00", "HUC": "100700060802", "isActive": true, "mgrs": "12TXR", "mountainRange": "Greater Yellowstone Rockies" }, "geometry": { "type": "Point", "coordinates": [ -109.459609985351562, 45.240100860595703 ] } },
{ "type": "Feature", "properties": { "code": "378_CO_SNTL", "name": "Burro Mountain", "elevation_m": 2865.1201171875, "latitude": 39.875049591064453, "longitude": -107.59853363037109, "county": "Rio Blanco", "state": "Colorado", "beginDate": "1978-10-01T00:00:00", "endDate": "2100-01-01T00:00:00", "HUC": "140500050302", "isActive": true, "mgrs": "13SBE", "mountainRange": "Southern Rocky Mountains" }, "geometry": { "type": "Point", "coordinates": [ -107.598533630371094, 39.875049591064453 ] } },
{ "type": "Feature", "properties": { "code": "379_WY_SNTL", "name": "Burroughs Creek", "elevation_m": 2667.0, "latitude": 43.697330474853516, "longitude": -109.67021179199219, "county": "Fremont", "state": "Wyoming", "beginDate": "1978-10-01T00:00:00", "endDate": "2100-01-01T00:00:00", "HUC": "100800010102", "isActive": true, "mgrs": "12TXP", "mountainRange": "Greater Yellowstone Rockies" }, "geometry": { "type": "Point", "coordinates": [ -109.670211791992188, 43.697330474853516 ] } },
{ "type": "Feature", "properties": { "code": "1135_UT_SNTL", "name": "Burts Miller Ranch", "elevation_m": 2438.39990234375, "latitude": 40.984920501708984, "longitude": -110.85075378417969, "county": "Summit", "state": "Utah", "beginDate": "2009-10-01T00:00:00", "endDate": "2100-01-01T00:00:00", "HUC": "160101010105", "isActive": true, "mgrs": "12TWL", "mountainRange": null }, "geometry": { "type": "Point", "coordinates": [ -110.850753784179688, 40.984920501708984 ] } },
{ "type": "Feature", "properties": { "code": "380_CO_SNTL", "name": "Butte", "elevation_m": 3096.76806640625, "latitude": 38.894329071044922, "longitude": -106.9530029296875, "county": "Gunnison", "state": "Colorado", "beginDate": "1979-10-01T00:00:00", "endDate": "2100-01-01T00:00:00", "HUC": "140200010206", "isActive": true, "mgrs": "13SCD", "mountainRange": "Southern Rocky Mountains" }, "geometry": { "type": "Point", "coordinates": [ -106.9530029296875, 38.894329071044922 ] } },
{ "type": "Feature", "properties": { "code": "1109_WA_SNTL", "name": "Calamity", "elevation_m": 762.0, "latitude": 45.903621673583984, "longitude": -122.21633148193359, "county": "Skamania", "state": "Washington", "beginDate": "2008-08-21T13:00:00", "endDate": "2100-01-01T00:00:00", "HUC": "170800020603", "isActive": true, "mgrs": "10TER", "mountainRange": "Cascade Range" }, "geometry": { "type": "Point", "coordinates": [ -122.216331481933594, 45.903621673583984 ] } },
{ "type": "Feature", "properties": { "code": "381_MT_SNTL", "name": "Calvert Creek", "elevation_m": 1959.864013671875, "latitude": 45.883800506591797, "longitude": -113.32553100585938, "county": "Deer Lodge", "state": "Montana", "beginDate": "1974-10-01T00:00:00", "endDate": "2100-01-01T00:00:00", "HUC": "100200040801", "isActive": true, "mgrs": "12TUR", "mountainRange": null }, "geometry": { "type": "Point", "coordinates": [ -113.325531005859375, 45.883800506591797 ] } },
{ "type": "Feature", "properties": { "code": "382_ID_SNTL", "name": "Camas Creek Divide", "elevation_m": 1740.407958984375, "latitude": 43.265480041503906, "longitude": -115.34529876708984, "county": "Elmore", "state": "Idaho", "beginDate": "1991-10-01T00:00:00", "endDate": "2100-01-01T00:00:00", "HUC": "170402200101", "isActive": true, "mgrs": "11TPH", "mountainRange": null }, "geometry": { "type": "Point", "coordinates": [ -115.345298767089844, 43.265480041503906 ] } },
{ "type": "Feature", "properties": { "code": "383_UT_SNTL", "name": "Camp Jackson", "elevation_m": 2699.91845703125, "latitude": 37.813331604003906, "longitude": -109.48722839355469, "county": "San Juan", "state": "Utah", "beginDate": "1985-10-01T00:00:00", "endDate": "2100-01-01T00:00:00", "HUC": "140802010301", "isActive": true, "mgrs": "12SXG", "mountainRange": "Colorado Plateau" }, "geometry": { "type": "Point", "coordinates": [ -109.487228393554688, 37.813331604003906 ] } },
{ "type": "Feature", "properties": { "code": "384_WY_SNTL", "name": "Canyon", "elevation_m": 2398.77587890625, "latitude": 44.719608306884766, "longitude": -110.51084136962891, "county": "Park", "state": "Wyoming", "beginDate": "1960-10-01T00:00:00", "endDate": "2100-01-01T00:00:00", "HUC": "100700010705", "isActive": true, "mgrs": "12TWQ", "mountainRange": null }, "geometry": { "type": "Point", "coordinates": [ -110.510841369628906, 44.719608306884766 ] } },
{ "type": "Feature", "properties": { "code": "385_MT_SNTL", "name": "Carrot Basin", "elevation_m": 2743.199951171875, "latitude": 44.961921691894531, "longitude": -111.29402923583984, "county": "Gallatin", "state": "Montana", "beginDate": "1966-10-01T00:00:00", "endDate": "2100-01-01T00:00:00", "HUC": "100200080105", "isActive": true, "mgrs": "12TVQ", "mountainRange": "Greater Yellowstone Rockies" }, "geometry": { "type": "Point", "coordinates": [ -111.294029235839844, 44.961921691894531 ] } },
{ "type": "Feature", "properties": { "code": "1067_CA_SNTL", "name": "Carson Pass", "elevation_m": 2548.1279296875, "latitude": 38.692699432373047, "longitude": -120.002197265625, "county": "Alpine", "state": "California", "beginDate": "2004-10-01T00:00:00", "endDate": "2100-01-01T00:00:00", "HUC": "180201290101", "isActive": true, "mgrs": "10SGH", "mountainRange": "Sierra Nevada" }, "geometry": { "type": "Point", "coordinates": [ -120.002197265625, 38.692699432373047 ] } },
{ "type": "Feature", "properties": { "code": "386_CO_SNTL", "name": "Cascade", "elevation_m": 2706.6240234375, "latitude": 37.650829315185547, "longitude": -107.80602264404297, "county": "San Juan", "state": "Colorado", "beginDate": "1978-10-01T00:00:00", "endDate": "2100-01-01T00:00:00", "HUC": "140801040201", "isActive": true, "mgrs": "13SBB", "mountainRange": "Southern Rocky Mountains" }, "geometry": { "type": "Point", "coordinates": [ -107.806022644042969, 37.650829315185547 ] } },
{ "type": "Feature", "properties": { "code": "387_CO_SNTL", "name": "Cascade #2", "elevation_m": 2718.81591796875, "latitude": 37.658000946044922, "longitude": -107.80268096923828, "county": "San Juan", "state": "Colorado", "beginDate": "1990-09-30T00:00:00", "endDate": "2100-01-01T00:00:00", "HUC": "140801040201", "isActive": true, "mgrs": "13SBB", "mountainRange": "Southern Rocky Mountains" }, "geometry": { "type": "Point", "coordinates": [ -107.802680969238281, 37.658000946044922 ] } },
{ "type": "Feature", "properties": { "code": "1039_UT_SNTL", "name": "Cascade Mountain", "elevation_m": 2369.51513671875, "latitude": 40.283000946044922, "longitude": -111.60991668701172, "county": "Utah", "state": "Utah", "beginDate": "2002-10-17T00:00:00", "endDate": "2100-01-01T00:00:00", "HUC": "160202030505", "isActive": true, "mgrs": "12TVK", "mountainRange": "Western Rocky Mountains" }, "geometry": { "type": "Point", "coordinates": [ -111.609916687011719, 40.283000946044922 ] } },
{ "type": "Feature", "properties": { "code": "388_OR_SNTL", "name": "Cascade Summit", "elevation_m": 1554.47998046875, "latitude": 43.590419769287109, "longitude": -122.06009674072266, "county": "Deschutes", "state": "Oregon", "beginDate": "1979-10-01T00:00:00", "endDate": "2100-01-01T00:00:00", "HUC": "170900010301", "isActive": true, "mgrs": "10TEP", "mountainRange": "Cascade Range" }, "geometry": { "type": "Point", "coordinates": [ -122.060096740722656, 43.590419769287109 ] } },
{ "type": "Feature", "properties": { "code": "253_MT_SNTL", "name": "Cashe Creek", "elevation_m": 2377.43994140625, "latitude": 45.083328247070312, "longitude": -111.38333129882812, "county": "Park", "state": "Montana", "beginDate": "1966-10-01T00:00:00", "endDate": "1992-05-01T00:00:00", "HUC": "100200080106", "isActive": false, "mgrs": "12TVQ", "mountainRange": "Greater Yellowstone Rockies" }, "geometry": { "type": "Point", "coordinates": [ -111.383331298828125, 45.083328247070312 ] } },
{ "type": "Feature", "properties": { "code": "389_WY_SNTL", "name": "Casper Mtn.", "elevation_m": 2407.919921875, "latitude": 42.733890533447266, "longitude": -106.31861114501953, "county": "Natrona", "state": "Wyoming", "beginDate": "1962-01-01T00:00:00", "endDate": "2100-01-01T00:00:00", "HUC": "101800070804", "isActive": true, "mgrs": "13TCH", "mountainRange": "Southern Rocky Mountains" }, "geometry": { "type": "Point", "coordinates": [ -106.318611145019531, 42.733890533447266 ] } },
{ "type": "Feature", "properties": { "code": "1130_WY_SNTL", "name": "Castle Creek", "elevation_m": 2560.320068359375, "latitude": 43.674800872802734, "longitude": -109.37740325927734, "county": "Fremont", "state": "Wyoming", "beginDate": "2010-08-18T00:00:00", "endDate": "2100-01-01T00:00:00", "HUC": "100800010401", "isActive": true, "mgrs": "12TXP", "mountainRange": "Greater Yellowstone Rockies" }, "geometry": { "type": "Point", "coordinates": [ -109.377403259277344, 43.674800872802734 ] } },
{ "type": "Feature", "properties": { "code": "390_UT_SNTL", "name": "Castle Valley", "elevation_m": 2928.213623046875, "latitude": 37.660980224609375, "longitude": -112.74092864990234, "county": "Iron", "state": "Utah", "beginDate": "1980-06-21T00:00:00", "endDate": "2100-01-01T00:00:00", "HUC": "160300010201", "isActive": true, "mgrs": "12SUG", "mountainRange": "Colorado Plateau" }, "geometry": { "type": "Point", "coordinates": [ -112.740928649902344, 37.660980224609375 ] } },
{ "type": "Feature", "properties": { "code": "247_CO_SNTL", "name": "Cathedral Bluffs", "elevation_m": 2590.800048828125, "latitude": 39.883331298828125, "longitude": -108.59999847412109, "county": "Rio Blanco", "state": "Colorado", "beginDate": "1981-10-01T00:00:00", "endDate": "1989-10-01T00:00:00", "HUC": "140500060302", "isActive": false, "mgrs": "12SYK", "mountainRange": "Colorado Plateau" }, "geometry": { "type": "Point", "coordinates": [ -108.599998474121094, 39.883331298828125 ] } },
{ "type": "Feature", "properties": { "code": "1152_NV_SNTL", "name": "Cave Mountain", "elevation_m": 3224.17431640625, "latitude": 39.163368225097656, "longitude": -114.61329650878906, "county": "White Pine", "state": "Nevada", "beginDate": "2011-10-01T00:00:00", "endDate": "2100-01-01T00:00:00", "HUC": "160600080402", "isActive": true, "mgrs": "11SQD", "mountainRange": "Great Basin Ranges" }, "geometry": { "type": "Point", "coordinates": [ -114.613296508789062, 39.163368225097656 ] } },
{ "type": "Feature", "properties": { "code": "1085_WA_SNTL", "name": "Cayuse Pass", "elevation_m": 1597.1519775390625, "latitude": 46.869541168212891, "longitude": -121.5343017578125, "county": "Pierce", "state": "Washington", "beginDate": "2006-10-01T00:00:00", "endDate": "2100-01-01T00:00:00", "HUC": "171100140301", "isActive": true, "mgrs": "10TFS", "mountainRange": "Cascade Range" }, "geometry": { "type": "Point", "coordinates": [ -121.5343017578125, 46.869541168212891 ] } },
{ "type": "Feature", "properties": { "code": "391_CA_SNTL", "name": "Cedar Pass", "elevation_m": 2142.743896484375, "latitude": 41.582328796386719, "longitude": -120.30249786376953, "county": "Modoc", "state": "California", "beginDate": "1977-10-01T00:00:00", "endDate": "2100-01-01T00:00:00", "HUC": "180200020603", "isActive": true, "mgrs": "10TGM", "mountainRange": "Great Basin Ranges" }, "geometry": { "type": "Point", "coordinates": [ -120.302497863769531, 41.582328796386719 ] } },
{ "type": "Feature", "properties": { "code": "1139_AZ_SNTL", "name": "Chalender", "elevation_m": 2164.080078125, "latitude": 35.262470245361328, "longitude": -112.06230926513672, "county": "Coconino", "state": "Arizona", "beginDate": "2009-05-15T00:00:00", "endDate": "2100-01-01T00:00:00", "HUC": "150602020305", "isActive": true, "mgrs": "12SVE", "mountainRange": null }, "geometry": { "type": "Point", "coordinates": [ -112.062309265136719, 35.262470245361328 ] } },
{ "type": "Feature", "properties": { "code": "392_UT_SNTL", "name": "Chalk Creek #1", "elevation_m": 2795.32080078125, "latitude": 40.854640960693359, "longitude": -111.04765319824219, "county": "Summit", "state": "Utah", "beginDate": "1978-10-01T00:00:00", "endDate": "2100-01-01T00:00:00", "HUC": "160201010301", "isActive": true, "mgrs": "12TVL", "mountainRange": "Western Rocky Mountains" }, "geometry": { "type": "Point", "coordinates": [ -111.047653198242188, 40.854640960693359 ] } },
{ "type": "Feature", "properties": { "code": "393_UT_SNTL", "name": "Chalk Creek #2", "elevation_m": 2501.79833984375, "latitude": 40.885288238525391, "longitude": -111.06954193115234, "county": "Summit", "state": "Utah", "beginDate": "1978-10-01T00:00:00", "endDate": "2100-01-01T00:00:00", "HUC": "160201010301", "isActive": true, "mgrs": "12TVL", "mountainRange": "Western Rocky Mountains" }, "geometry": { "type": "Point", "coordinates": [ -111.069541931152344, 40.885288238525391 ] } },
{ "type": "Feature", "properties": { "code": "394_NM_SNTL", "name": "Chamita", "elevation_m": 2560.320068359375, "latitude": 36.95635986328125, "longitude": -106.65682220458984, "county": "Rio Arriba", "state": "New Mexico", "beginDate": "1978-10-01T00:00:00", "endDate": "2100-01-01T00:00:00", "HUC": "130201020204", "isActive": true, "mgrs": "13SCA", "mountainRange": null }, "geometry": { "type": "Point", "coordinates": [ -106.656822204589844, 36.95635986328125 ] } },
{ "type": "Feature", "properties": { "code": "1101_CO_SNTL", "name": "Chapman Tunnel", "elevation_m": 3081.528076171875, "latitude": 39.262168884277344, "longitude": -106.62931060791016, "county": "Pitkin", "state": "Colorado", "beginDate": "2007-09-01T00:00:00", "endDate": "2100-01-01T00:00:00", "HUC": "140100040504", "isActive": true, "mgrs": "13SCD", "mountainRange": "Southern Rocky Mountains" }, "geometry": { "type": "Point", "coordinates": [ -106.629310607910156, 39.262168884277344 ] } },
{ "type": "Feature", "properties": { "code": "395_OR_SNTL", "name": "Chemult Alternate", "elevation_m": 1478.280029296875, "latitude": 43.226249694824219, "longitude": -121.80661773681641, "county": "Klamath", "state": "Oregon", "beginDate": "1979-10-01T00:00:00", "endDate": "2100-01-01T00:00:00", "HUC": "180102010201", "isActive": true, "mgrs": "10TEN", "mountainRange": null }, "geometry": { "type": "Point", "coordinates": [ -121.806617736816406, 43.226249694824219 ] } },
{ "type": "Feature", "properties": { "code": "396_UT_SNTL", "name": "Chepeta", "elevation_m": 3200.09521484375, "latitude": 40.774578094482422, "longitude": -110.010498046875, "county": "Duchesne", "state": "Utah", "beginDate": "1980-07-16T00:00:00", "endDate": "2100-01-01T00:00:00", "HUC": "140600031202", "isActive": true, "mgrs": "12TWL", "mountainRange": "Western Rocky Mountains" }, "geometry": { "type": "Point", "coordinates": [ -110.010498046875, 40.774578094482422 ] } },
{ "type": "Feature", "properties": { "code": "1093_AK_SNTL", "name": "Chisana", "elevation_m": 1011.9359741210938, "latitude": 62.069000244140625, "longitude": -142.04899597167969, "county": "Valdez-Cordova", "state": "Alaska", "beginDate": "2007-10-01T00:00:00", "endDate": "2100-01-01T00:00:00", "HUC": "190803010305", "isActive": true, "mgrs": "07VDJ", "mountainRange": null }, "geometry": { "type": "Point", "coordinates": [ -142.048995971679688, 62.069000244140625 ] } },
{ "type": "Feature", "properties": { "code": "895_ID_SNTL", "name": "Chocolate Gulch", "elevation_m": 1923.2879638671875, "latitude": 43.768501281738281, "longitude": -114.41812133789062, "county": "Blaine", "state": "Idaho", "beginDate": "1992-10-01T00:00:00", "endDate": "2100-01-01T00:00:00", "HUC": "170402190301", "isActive": true, "mgrs": "11TQJ", "mountainRange": "Idaho-Bitterroot Rocky Mountains" }, "geometry": { "type": "Point", "coordinates": [ -114.418121337890625, 43.768501281738281 ] } },
{ "type": "Feature", "properties": { "code": "397_WY_SNTL", "name": "Christina Lake", "elevation_m": 3041.904052734375, "latitude": 42.583328247070312, "longitude": -108.91667175292969, "county": "Fremont", "state": "Wyoming", "beginDate": "1980-09-04T00:00:00", "endDate": "1997-10-01T00:00:00", "HUC": "100800030101", "isActive": false, "mgrs": "12TXN", "mountainRange": "Greater Yellowstone Rockies" }, "geometry": { "type": "Point", "coordinates": [ -108.916671752929688, 42.583328247070312 ] } },
{ "type": "Feature", "properties": { "code": "1046_WY_SNTL", "name": "Cinnabar Park", "elevation_m": 2918.1552734375, "latitude": 41.238368988037109, "longitude": -106.23094940185547, "county": "Albany", "state": "Wyoming", "beginDate": "1999-06-13T00:00:00", "endDate": "2100-01-01T00:00:00", "HUC": "101800100503", "isActive": true, "mgrs": "13TCF", "mountainRange": null }, "geometry": { "type": "Point", "coordinates": [ -106.230949401855469, 41.238368988037109 ] } },
{ "type": "Feature", "properties": { "code": "398_OR_SNTL", "name": "Clackamas Lake", "elevation_m": 1036.3199462890625, "latitude": 45.096580505371094, "longitude": -121.75443267822266, "county": "Clackamas", "state": "Oregon", "beginDate": "1979-10-01T00:00:00", "endDate": "2100-01-01T00:00:00", "HUC": "170900110301", "isActive": true, "mgrs": "10TEQ", "mountainRange": null }, "geometry": { "type": "Point", "coordinates": [ -121.754432678222656, 45.096580505371094 ] } },
{ "type": "Feature", "properties": { "code": "983_UT_SNTL", "name": "Clayton Springs", "elevation_m": 3062.935302734375, "latitude": 37.972499847412109, "longitude": -111.83354949951172, "county": "Garfield", "state": "Utah", "beginDate": "2000-10-01T00:00:00", "endDate": "2100-01-01T00:00:00", "HUC": "160300020501", "isActive": true, "mgrs": "12SVH", "mountainRange": null }, "geometry": { "type": "Point", "coordinates": [ -111.833549499511719, 37.972499847412109 ] } },
{ "type": "Feature", "properties": { "code": "399_UT_SNTL", "name": "Clear Creek #1", "elevation_m": 2735.580078125, "latitude": 39.866710662841797, "longitude": -111.28363037109375, "county": "Utah", "state": "Utah", "beginDate": "1978-01-01T00:00:00", "endDate": "2100-01-01T00:00:00", "HUC": "160202020102", "isActive": true, "mgrs": "12SVK", "mountainRange": "Colorado Plateau" }, "geometry": { "type": "Point", "coordinates": [ -111.28363037109375, 39.866710662841797 ] } },
{ "type": "Feature", "properties": { "code": "400_UT_SNTL", "name": "Clear Creek #2", "elevation_m": 2388.717529296875, "latitude": 39.892749786376953, "longitude": -111.25154113769531, "county": "Utah", "state": "Utah", "beginDate": "1978-10-01T00:00:00", "endDate": "2100-01-01T00:00:00", "HUC": "160202020102", "isActive": true, "mgrs": "12SVK", "mountainRange": "Colorado Plateau" }, "geometry": { "type": "Point", "coordinates": [ -111.251541137695312, 39.892749786376953 ] } },
{ "type": "Feature", "properties": { "code": "401_OR_SNTL", "name": "Clear Lake", "elevation_m": 1161.2879638671875, "latitude": 45.188320159912109, "longitude": -121.69159698486328, "county": "Wasco", "state": "Oregon", "beginDate": "1979-10-01T00:00:00", "endDate": "2100-01-01T00:00:00", "HUC": "170703060901", "isActive": true, "mgrs": "10TFR", "mountainRange": "Cascade Range" }, "geometry": { "type": "Point", "coordinates": [ -121.691596984863281, 45.188320159912109 ] } },
{ "type": "Feature", "properties": { "code": "402_WY_SNTL", "name": "Cloud Peak Reservoir", "elevation_m": 3005.327880859375, "latitude": 44.403430938720703, "longitude": -107.06056976318359, "county": "Johnson", "state": "Wyoming", "beginDate": "1978-10-01T00:00:00", "endDate": "2100-01-01T00:00:00", "HUC": "100902060301", "isActive": true, "mgrs": "13TCK", "mountainRange": "Greater Yellowstone Rockies" }, "geometry": { "type": "Point", "coordinates": [ -107.060569763183594, 44.403430938720703 ] } },
{ "type": "Feature", "properties": { "code": "403_MT_SNTL", "name": "Clover Meadow", "elevation_m": 2621.280029296875, "latitude": 45.017879486083984, "longitude": -111.84559631347656, "county": "Madison", "state": "Montana", "beginDate": "1971-10-01T00:00:00", "endDate": "2100-01-01T00:00:00", "HUC": "100200070803", "isActive": true, "mgrs": "12TVQ", "mountainRange": "Central Montana Rocky Mountains" }, "geometry": { "type": "Point", "coordinates": [ -111.845596313476562, 45.017879486083984 ] } },
{ "type": "Feature", "properties": { "code": "1059_CO_SNTL", "name": "Cochetopa Pass", "elevation_m": 3054.095947265625, "latitude": 38.162830352783203, "longitude": -106.59883117675781, "county": "Saguache", "state": "Colorado", "beginDate": "2004-09-01T00:00:00", "endDate": "2100-01-01T00:00:00", "HUC": "130100040203", "isActive": true, "mgrs": "13SCC", "mountainRange": "Southern Rocky Mountains" }, "geometry": { "type": "Point", "coordinates": [ -106.598831176757812, 38.162830352783203 ] } },
{ "type": "Feature", "properties": { "code": "405_WY_SNTL", "name": "Cold Springs", "elevation_m": 2935.22412109375, "latitude": 43.276760101318359, "longitude": -109.44584655761719, "county": "Fremont", "state": "Wyoming", "beginDate": "1980-10-01T00:00:00", "endDate": "2100-01-01T00:00:00", "HUC": "100800010702", "isActive": true, "mgrs": "12TXN", "mountainRange": "Greater Yellowstone Rockies" }, "geometry": { "type": "Point", "coordinates": [ -109.445846557617188, 43.276760101318359 ] } },
{ "type": "Feature", "properties": { "code": "406_OR_SNTL", "name": "Cold Springs Camp", "elevation_m": 1810.511962890625, "latitude": 42.533050537109375, "longitude": -122.17682647705078, "county": "Klamath", "state": "Oregon", "beginDate": "1979-10-01T00:00:00", "endDate": "2100-01-01T00:00:00", "HUC": "180102030202", "isActive": true, "mgrs": "10TEN", "mountainRange": "Cascade Range" }, "geometry": { "type": "Point", "coordinates": [ -122.176826477050781, 42.533050537109375 ] } },
{ "type": "Feature", "properties": { "code": "958_AK_SNTL", "name": "Coldfoot", "elevation_m": 316.99200439453125, "latitude": 67.253326416015625, "longitude": -150.18299865722656, "county": "Yukon-Koyukuk", "state": "Alaska", "beginDate": "1994-10-01T00:00:00", "endDate": "2100-01-01T00:00:00", "HUC": "190901010604", "isActive": true, "mgrs": "05WPQ", "mountainRange": null }, "geometry": { "type": "Point", "coordinates": [ -150.182998657226562, 67.253326416015625 ] } },
{ "type": "Feature", "properties": { "code": "982_WY_SNTL", "name": "Cole Canyon", "elevation_m": 1801.3680419921875, "latitude": 44.486320495605469, "longitude": -104.41056823730469, "county": "Crook", "state": "Wyoming", "beginDate": "2000-06-01T00:00:00", "endDate": "2100-01-01T00:00:00", "HUC": "101202030302", "isActive": true, "mgrs": "13TEK", "mountainRange": "Black Hills" }, "geometry": { "type": "Point", "coordinates": [ -104.410568237304688, 44.486320495605469 ] } },
{ "type": "Feature", "properties": { "code": "407_MT_SNTL", "name": "Cole Creek", "elevation_m": 2392.679931640625, "latitude": 45.194049835205078, "longitude": -109.34548187255859, "county": "Carbon", "state": "Montana", "beginDate": "1960-10-01T00:00:00", "endDate": "2100-01-01T00:00:00", "HUC": "100700060801", "isActive": true, "mgrs": "12TXR", "mountainRange": "Greater Yellowstone Rockies" }, "geometry": { "type": "Point", "coordinates": [ -109.345481872558594, 45.194049835205078 ] } },
{ "type": "Feature", "properties": { "code": "1204_NV_SNTL", "name": "Columbia Basin", "elevation_m": 1972.36083984375, "latitude": 41.671600341796875, "longitude": -116.07029724121094, "county": "Elko", "state": "Nevada", "beginDate": "2011-12-23T08:00:00", "endDate": "2100-01-01T00:00:00", "HUC": "170501050503", "isActive": true, "mgrs": "11TNG", "mountainRange": "Great Basin Ranges" }, "geometry": { "type": "Point", "coordinates": [ -116.070297241210938, 41.671600341796875 ] } },
{ "type": "Feature", "properties": { "code": "408_CO_SNTL", "name": "Columbine", "elevation_m": 2791.968017578125, "latitude": 40.394798278808594, "longitude": -106.60408020019531, "county": "Jackson", "state": "Colorado", "beginDate": "1978-10-01T00:00:00", "endDate": "2100-01-01T00:00:00", "HUC": "101800010102", "isActive": true, "mgrs": "13TCE", "mountainRange": "Southern Rocky Mountains" }, "geometry": { "type": "Point", "coordinates": [ -106.604080200195312, 40.394798278808594 ] } },
{ "type": "Feature", "properties": { "code": "409_CO_SNTL", "name": "Columbine Pass", "elevation_m": 2865.1201171875, "latitude": 38.417949676513672, "longitude": -108.38249206542969, "county": "Montrose", "state": "Colorado", "beginDate": "1985-10-01T00:00:00", "endDate": "2100-01-01T00:00:00", "HUC": "140200050202", "isActive": true, "mgrs": "12SYH", "mountainRange": "Colorado Plateau" }, "geometry": { "type": "Point", "coordinates": [ -108.382492065429688, 38.417949676513672 ] } },
{ "type": "Feature", "properties": { "code": "904_CO_SNTL", "name": "Columbus Basin", "elevation_m": 3287.26806640625, "latitude": 37.441471099853516, "longitude": -108.02445220947266, "county": "La Plata", "state": "Colorado", "beginDate": "1994-08-30T00:00:00", "endDate": "2100-01-01T00:00:00", "HUC": "140801050101", "isActive": true, "mgrs": "12SYG", "mountainRange": "Southern Rocky Mountains" }, "geometry": { "type": "Point", "coordinates": [ -108.024452209472656, 37.441471099853516 ] } },
{ "type": "Feature", "properties": { "code": "410_MT_SNTL", "name": "Combination", "elevation_m": 1706.8800048828125, "latitude": 46.465229034423828, "longitude": -113.39357757568359, "county": "Granite", "state": "Montana", "beginDate": "1965-10-01T00:00:00", "endDate": "2100-01-01T00:00:00", "HUC": "170102020401", "isActive": true, "mgrs": "12TUS", "mountainRange": "Central Montana Rocky Mountains" }, "geometry": { "type": "Point", "coordinates": [ -113.393577575683594, 46.465229034423828 ] } },
{ "type": "Feature", "properties": { "code": "411_ID_SNTL", "name": "Cool Creek", "elevation_m": 1914.14404296875, "latitude": 46.76361083984375, "longitude": -115.29528045654297, "county": "Clearwater", "state": "Idaho", "beginDate": "1983-10-01T00:00:00", "endDate": "2100-01-01T00:00:00", "HUC": "170603070702", "isActive": true, "mgrs": "11TPM", "mountainRange": "Idaho-Bitterroot Rocky Mountains" }, "geometry": { "type": "Point", "coordinates": [ -115.295280456542969, 46.76361083984375 ] } },
{ "type": "Feature", "properties": { "code": "959_AK_SNTL", "name": "Cooper Lake", "elevation_m": 365.760009765625, "latitude": 60.390270233154297, "longitude": -149.693603515625, "county": "Kenai Peninsula", "state": "Alaska", "beginDate": "1981-10-01T00:00:00", "endDate": "2100-01-01T00:00:00", "HUC": "190203021205", "isActive": true, "mgrs": "06VUM", "mountainRange": "South-Central Alaska" }, "geometry": { "type": "Point", "coordinates": [ -149.693603515625, 60.390270233154297 ] } },
{ "type": "Feature", "properties": { "code": "412_CO_SNTL", "name": "Copeland Lake", "elevation_m": 2621.280029296875, "latitude": 40.207778930664062, "longitude": -105.56861114501953, "county": "Boulder", "state": "Colorado", "beginDate": "1979-10-01T00:00:00", "endDate": "2100-01-01T00:00:00", "HUC": "101900050202", "isActive": true, "mgrs": "13TDE", "mountainRange": "Southern Rocky Mountains" }, "geometry": { "type": "Point", "coordinates": [ -105.568611145019531, 40.207778930664062 ] } },
{ "type": "Feature", "properties": { "code": "413_MT_SNTL", "name": "Copper Bottom", "elevation_m": 1584.9599609375, "latitude": 47.056781768798828, "longitude": -112.59500122070312, "county": "Lewis and Clark", "state": "Montana", "beginDate": "1978-10-01T00:00:00", "endDate": "2100-01-01T00:00:00", "HUC": "170102030103", "isActive": true, "mgrs": "12TUT", "mountainRange": "Central Montana Rocky Mountains" }, "geometry": { "type": "Point", "coordinates": [ -112.595001220703125, 47.056781768798828 ] } },
{ "type": "Feature", "properties": { "code": "414_MT_SNTL", "name": "Copper Camp", "elevation_m": 2118.360107421875, "latitude": 47.081581115722656, "longitude": -112.72955322265625, "county": "Lewis and Clark", "state": "Montana", "beginDate": "1978-10-01T00:00:00", "endDate": "2100-01-01T00:00:00", "HUC": "170102030103", "isActive": true, "mgrs": "12TUT", "mountainRange": "Central Montana Rocky Mountains" }, "geometry": { "type": "Point", "coordinates": [ -112.72955322265625, 47.081581115722656 ] } },
{ "type": "Feature", "properties": { "code": "415_CO_SNTL", "name": "Copper Mountain", "elevation_m": 3215.639892578125, "latitude": 39.489540100097656, "longitude": -106.17095184326172, "county": "Summit", "state": "Colorado", "beginDate": "1978-10-01T00:00:00", "endDate": "2100-01-01T00:00:00", "HUC": "140100020302", "isActive": true, "mgrs": "13SCD", "mountainRange": "Southern Rocky Mountains" }, "geometry": { "type": "Point", "coordinates": [ -106.170951843261719, 39.489540100097656 ] } },
{ "type": "Feature", "properties": { "code": "1209_NV_SNTL", "name": "Corduroy Flat", "elevation_m": 2633.471923828125, "latitude": 38.996509552001953, "longitude": -115.42478179931641, "county": "White Pine", "state": "Nevada", "beginDate": "2011-12-23T09:00:00", "endDate": "2100-01-01T00:00:00", "HUC": "160600121206", "isActive": true, "mgrs": "11SPD", "mountainRange": "Great Basin Ranges" }, "geometry": { "type": "Point", "coordinates": [ -115.424781799316406, 38.996509552001953 ] } },
{ "type": "Feature", "properties": { "code": "416_AZ_SNTL", "name": "Coronado Trail", "elevation_m": 2560.320068359375, "latitude": 33.803920745849609, "longitude": -109.15281677246094, "county": "Apache", "state": "Arizona", "beginDate": "1978-10-01T00:00:00", "endDate": "2100-01-01T00:00:00", "HUC": "150400040501", "isActive": true, "mgrs": "12SXC", "mountainRange": "Colorado Plateau" }, "geometry": { "type": "Point", "coordinates": [ -109.152816772460938, 33.803920745849609 ] } },
{ "type": "Feature", "properties": { "code": "1236_UT_SNTL", "name": "Corral", "elevation_m": 2501.49365234375, "latitude": 39.657951354980469, "longitude": -110.37905883789062, "county": "Carbon", "state": "Utah", "beginDate": "2013-10-01T00:00:00", "endDate": "2100-01-01T00:00:00", "HUC": "140600070903", "isActive": true, "mgrs": "12SWJ", "mountainRange": "Colorado Plateau" }, "geometry": { "type": "Point", "coordinates": [ -110.379058837890625, 39.657951354980469 ] } },
{ "type": "Feature", "properties": { "code": "417_NV_SNTL", "name": "Corral Canyon", "elevation_m": 2574.035888671875, "latitude": 40.275508880615234, "longitude": -115.54016876220703, "county": "Elko", "state": "Nevada", "beginDate": "1978-10-01T00:00:00", "endDate": "2100-01-01T00:00:00", "HUC": "160401030401", "isActive": true, "mgrs": "11TPE", "mountainRange": "Great Basin Ranges" }, "geometry": { "type": "Point", "coordinates": [ -115.540168762207031, 40.275508880615234 ] } },
{ "type": "Feature", "properties": { "code": "418_WA_SNTL", "name": "Corral Pass", "elevation_m": 1767.8399658203125, "latitude": 47.018718719482422, "longitude": -121.46463775634766, "county": "Pierce", "state": "Washington", "beginDate": "1979-10-01T00:00:00", "endDate": "2100-01-01T00:00:00", "HUC": "171100140307", "isActive": true, "mgrs": "10TFT", "mountainRange": "Cascade Range" }, "geometry": { "type": "Point", "coordinates": [ -121.464637756347656, 47.018718719482422 ] } },
{ "type": "Feature", "properties": { "code": "419_WY_SNTL", "name": "Cottonwood Creek", "elevation_m": 2337.81591796875, "latitude": 42.645900726318359, "longitude": -110.8148193359375, "county": "Lincoln", "state": "Wyoming", "beginDate": "1980-10-01T00:00:00", "endDate": "2100-01-01T00:00:00", "HUC": "170401050102", "isActive": true, "mgrs": "12TWN", "mountainRange": "Western Rocky Mountains" }, "geometry": { "type": "Point", "coordinates": [ -110.8148193359375, 42.645900726318359 ] } },
{ "type": "Feature", "properties": { "code": "420_WA_SNTL", "name": "Cougar Mountain", "elevation_m": 975.3599853515625, "latitude": 47.276660919189453, "longitude": -121.67137908935547, "county": "King", "state": "Washington", "beginDate": "1979-10-01T00:00:00", "endDate": "2100-01-01T00:00:00", "HUC": "171100130202", "isActive": true, "mgrs": "10TFT", "mountainRange": "Cascade Range" }, "geometry": { "type": "Point", "coordinates": [ -121.671379089355469, 47.276660919189453 ] } },
{ "type": "Feature", "properties": { "code": "421_WY_SNTL", "name": "Coulter Creek", "elevation_m": 2139.696044921875, "latitude": 44.166671752929688, "longitude": -110.56667327880859, "county": "Teton", "state": "Wyoming", "beginDate": "1980-08-01T00:00:00", "endDate": "1997-10-01T00:00:00", "HUC": "170401010207", "isActive": false, "mgrs": "12TWP", "mountainRange": "Greater Yellowstone Rockies" }, "geometry": { "type": "Point", "coordinates": [ -110.566673278808594, 44.166671752929688 ] } },
{ "type": "Feature", "properties": { "code": "422_OR_SNTL", "name": "County Line", "elevation_m": 1472.1839599609375, "latitude": 45.191070556640625, "longitude": -118.55014801025391, "county": "Umatilla", "state": "Oregon", "beginDate": "1979-10-01T00:00:00", "endDate": "2100-01-01T00:00:00", "HUC": "170601040202", "isActive": true, "mgrs": "11TLL", "mountainRange": null }, "geometry": { "type": "Point", "coordinates": [ -118.550148010253906, 45.191070556640625 ] } },
{ "type": "Feature", "properties": { "code": "423_ID_SNTL", "name": "Cozy Cove", "elevation_m": 1645.9200439453125, "latitude": 44.288459777832031, "longitude": -115.65508270263672, "county": "Valley", "state": "Idaho", "beginDate": "1978-10-01T00:00:00", "endDate": "2100-01-01T00:00:00", "HUC": "170501200403", "isActive": true, "mgrs": "11TPK", "mountainRange": "Idaho-Bitterroot Rocky Mountains" }, "geometry": { "type": "Point", "coordinates": [ -115.655082702636719, 44.288459777832031 ] } },
{ "type": "Feature", "properties": { "code": "424_ID_SNTL", "name": "Crab Creek", "elevation_m": 2103.1201171875, "latitude": 44.437000274658203, "longitude": -111.99384307861328, "county": "Clark", "state": "Idaho", "beginDate": "1979-10-01T00:00:00", "endDate": "2100-01-01T00:00:00", "HUC": "170402140108", "isActive": true, "mgrs": "12TVQ", "mountainRange": "Idaho-Bitterroot Rocky Mountains" }, "geometry": { "type": "Point", "coordinates": [ -111.993843078613281, 44.437000274658203 ] } },
{ "type": "Feature", "properties": { "code": "425_ID_SNTL", "name": "Crater Meadows", "elevation_m": 1816.6080322265625, "latitude": 46.563938140869141, "longitude": -115.28903198242188, "county": "Clearwater", "state": "Idaho", "beginDate": "1983-10-01T00:00:00", "endDate": "2100-01-01T00:00:00", "HUC": "170603070502", "isActive": true, "mgrs": "11TPM", "mountainRange": "Idaho-Bitterroot Rocky Mountains" }, "geometry": { "type": "Point", "coordinates": [ -115.289031982421875, 46.563938140869141 ] } },
{ "type": "Feature", "properties": { "code": "1010_OR_SNTL", "name": "Crazyman Flat", "elevation_m": 1883.6639404296875, "latitude": 42.638099670410156, "longitude": -120.94917297363281, "county": "Klamath", "state": "Oregon", "beginDate": "2001-09-01T00:00:00", "endDate": "2100-01-01T00:00:00", "HUC": "180102020101", "isActive": true, "mgrs": "10TFN", "mountainRange": "Great Basin Ranges" }, "geometry": { "type": "Point", "coordinates": [ -120.949172973632812, 42.638099670410156 ] } },
{ "type": "Feature", "properties": { "code": "426_CO_SNTL", "name": "Crosho", "elevation_m": 2773.679931640625, "latitude": 40.167449951171875, "longitude": -107.05750274658203, "county": "Rio Blanco", "state": "Colorado", "beginDate": "1985-10-01T00:00:00", "endDate": "2100-01-01T00:00:00", "HUC": "140500010106", "isActive": true, "mgrs": "13TCE", "mountainRange": "Southern Rocky Mountains" }, "geometry": { "type": "Point", "coordinates": [ -107.057502746582031, 40.167449951171875 ] } },
{ "type": "Feature", "properties": { "code": "1045_WY_SNTL", "name": "Crow Creek", "elevation_m": 2538.98388671875, "latitude": 41.22869873046875, "longitude": -105.38278198242188, "county": "Albany", "state": "Wyoming", "beginDate": "2003-08-01T00:00:00", "endDate": "2100-01-01T00:00:00", "HUC": "101900090104", "isActive": true, "mgrs": "13TDF", "mountainRange": null }, "geometry": { "type": "Point", "coordinates": [ -105.382781982421875, 41.22869873046875 ] } },
{ "type": "Feature", "properties": { "code": "977_CA_SNTL", "name": "Crowder Flat", "elevation_m": 1575.8160400390625, "latitude": 41.893180847167969, "longitude": -120.75202178955078, "county": "Modoc", "state": "California", "beginDate": "1999-10-01T00:00:00", "endDate": "2100-01-01T00:00:00", "HUC": "180102040103", "isActive": true, "mgrs": "10TFM", "mountainRange": null }, "geometry": { "type": "Point", "coordinates": [ -120.752021789550781, 41.893180847167969 ] } },
{ "type": "Feature", "properties": { "code": "427_MT_SNTL", "name": "Crystal Lake", "elevation_m": 1844.0400390625, "latitude": 46.789421081542969, "longitude": -109.51204681396484, "county": "Fergus", "state": "Montana", "beginDate": "1967-09-01T00:00:00", "endDate": "2100-01-01T00:00:00", "HUC": "100401030204", "isActive": true, "mgrs": "12TXS", "mountainRange": "Central Montana Rocky Mountains" }, "geometry": { "type": "Point", "coordinates": [ -109.512046813964844, 46.789421081542969 ] } },
{ "type": "Feature", "properties": { "code": "428_CA_SNTL", "name": "Css Lab", "elevation_m": 2101.291259765625, "latitude": 39.325649261474609, "longitude": -120.36807250976562, "county": "Nevada", "state": "California", "beginDate": "1980-10-01T00:00:00", "endDate": "2100-01-01T00:00:00", "HUC": "180201250602", "isActive": true, "mgrs": "10SGJ", "mountainRange": "Sierra Nevada" }, "geometry": { "type": "Point", "coordinates": [ -120.368072509765625, 39.325649261474609 ] } },
{ "type": "Feature", "properties": { "code": "430_CO_SNTL", "name": "Culebra #2", "elevation_m": 3200.39990234375, "latitude": 37.209449768066406, "longitude": -105.19959259033203, "county": "Costilla", "state": "Colorado", "beginDate": "1978-10-01T00:00:00", "endDate": "2100-01-01T00:00:00", "HUC": "130100020902", "isActive": true, "mgrs": "13SDB", "mountainRange": "Southern Rocky Mountains" }, "geometry": { "type": "Point", "coordinates": [ -105.199592590332031, 37.209449768066406 ] } },
{ "type": "Feature", "properties": { "code": "431_CO_SNTL", "name": "Cumbres Trestle", "elevation_m": 3060.19189453125, "latitude": 37.018779754638672, "longitude": -106.45178985595703, "county": "Conejos", "state": "Colorado", "beginDate": "1979-10-01T00:00:00", "endDate": "2100-01-01T00:00:00", "HUC": "130201020203", "isActive": true, "mgrs": "13SCA", "mountainRange": "Southern Rocky Mountains" }, "geometry": { "type": "Point", "coordinates": [ -106.451789855957031, 37.018779754638672 ] } },
{ "type": "Feature", "properties": { "code": "432_UT_SNTL", "name": "Currant Creek", "elevation_m": 2412.491943359375, "latitude": 40.357471466064453, "longitude": -111.08992767333984, "county": "Wasatch", "state": "Utah", "beginDate": "1978-10-01T00:00:00", "endDate": "2100-01-01T00:00:00", "HUC": "140600040401", "isActive": true, "mgrs": "12TVK", "mountainRange": "Western Rocky Mountains" }, "geometry": { "type": "Point", "coordinates": [ -111.089927673339844, 40.357471466064453 ] } },
{ "type": "Feature", "properties": { "code": "919_MT_SNTL", "name": "Daisy Peak", "elevation_m": 2316.47998046875, "latitude": 46.6685791015625, "longitude": -110.33022308349609, "county": "Meagher", "state": "Montana", "beginDate": "1977-09-01T00:00:00", "endDate": "2100-01-01T00:00:00", "HUC": "100402010106", "isActive": true, "mgrs": "12TWS", "mountainRange": "Central Montana Rocky Mountains" }, "geometry": { "type": "Point", "coordinates": [ -110.330223083496094, 46.6685791015625 ] } },